STATION_ID,STATION_NAME,DATA_BEGIN_DATE,DATA_END_DATE,LOC_BEGIN_DATE,LOC_END_DATE,STATE,COUNTRY,LATITUDE,LONGITUDE,ELEVATION
WBAN:24061,"RIVERTON REGIONAL AIRPORT, WY US",94694400000,1.74649E+12,1.63754E+12,2.53402E+14,Wyoming,United States,43.06217,-108.44705,1660.3
WBAN:24029,"SHERIDAN AIRPORT, WY US",-6.9431E+11,1.74649E+12,1.63754E+12,2.53402E+14,Wyoming,United States,44.76031,-106.97413,1210.4
WBAN:12962,"HONDO MUNICIPAL AIRPORT, TX US",-8.61408E+11,1.74649E+12,1.63754E+12,2.53402E+14,Texas,United States,29.36013,-99.17423,281
WBAN:12918,"HOUSTON WILLIAM P HOBBY AIRPORT, TX US",-6.78586E+11,1.74649E+12,1.63754E+12,2.53402E+14,Texas,United States,29.64586,-95.28212,13.2
WBAN:53910,"HOUSTON HOOKS MEMORIAL AIRPORT, TX US",1.10454E+12,1.74649E+12,1.63754E+12,2.53402E+14,Texas,United States,30.06801,-95.55628,46.8
WBAN:13966,"WICHITA FALLS MUNICIPAL AIRPORT, TX US",-8.748E+11,1.74649E+12,1.63754E+12,2.53402E+14,Texas,United States,33.97855,-98.49298,308.6
WBAN:93042,"DALHART FAA AIRPORT, TX US",-8.57347E+11,1.74649E+12,1.63754E+12,2.53402E+14,Texas,United States,36.02516,-102.54875,1215.5
WBAN:23170,"HANKSVILLE AIRPORT, UT US",-6.67958E+11,1.74649E+12,-1.13702E+11,2.53402E+14,Utah,United States,38.41667,-110.7,1355.1
WBAN:13773,"QUANTICO MCAS, VA US",-7.8624E+11,1.74649E+12,-1.49377E+12,2.53402E+14,Virginia,United States,38.50362,-77.30503,3
WBAN:94298,"VANCOUVER PEARSON AIRPORT, WA US",1.10454E+12,1.74649E+12,1.63754E+12,2.53402E+14,Washington,United States,45.62102,-122.65421,6.6
WBAN:24243,"YAKIMA AIRPORT, WA US",-6.9431E+11,1.74649E+12,1.63754E+12,2.53402E+14,Washington,United States,46.56398,-120.53488,321
WBAN:33209,"SOUDA BAY CRETE, GR",1.13011E+11,1.10074E+12,1.13011E+11,2.53402E+14,,Greece,35.53333,24.15,146.3
WBAN:34113,"NAPLES, IT",5.31446E+11,1.7464E+12,-7.20835E+11,2.53402E+14,,Italy,40.88603,14.29078,89.6
WBAN:43321,"KISARAZU, JA",-5.50282E+11,1.74493E+12,-3.39466E+11,2.53402E+14,,Japan,35.398272,139.909936,3
WBAN:43240,"SACHON ROK K 4, KS",-4.8937E+11,1.69327E+12,31449600000,2.53402E+14,,South Korea,35.088543,128.07037,7.6
WBAN:11634,"PIARCO INTERNATIONAL AIRPORT, TD",1.10454E+12,1.74649E+12,-2678400000,2.53402E+14,,Trinidad & Tobago,10.58333,-61.35,12.2
WBAN:03028,"SPRINGFIELD COMANCHE NATIONAL GRASSLAND, CO US",1.10454E+12,1.74649E+12,8.98733E+11,2.53402E+14,Colorado,United States,37.28346,-102.613784,1337
WBAN:53916,"CHILLICOTHE AGRI SCIENCE CENTER, MO US",1.10454E+12,1.74649E+12,8.95709E+11,2.53402E+14,Missouri,United States,39.819848,-93.576951,231
WBAN:94056,"FAITH MUNICIPAL AIRPORT, SD US",1.10454E+12,1.74649E+12,8.95709E+11,2.53402E+14,South Dakota,United States,45.032601,-102.01999,784
WBAN:53912,"CORSICANA CAMPBELL FIELD, TX US",1.10454E+12,1.74649E+12,1.63754E+12,2.53402E+14,Texas,United States,32.03155,-96.39936,135
WBAN:26645,"BUCKLAND AIRPORT, AK US",1.10454E+12,1.74649E+12,-5.90115E+13,2.53402E+14,Alaska,United States,65.98333,-161.13333,9.1
WBAN:63839,"CULLMAN FOLSOM FIELD AIRPORT, AL US",1.10454E+12,1.7464E+12,1.06574E+12,2.53402E+14,Alabama,United States,34.26889,-86.85833,293.5
WBAN:00179,"TODD FIELD AIRPORT, MN US",1.40676E+12,1.74649E+12,6.23203E+11,2.53402E+14,Minnesota,United States,45.9,-94.867,406.3
WBAN:00185,"SHAWANO MUNICIPAL AIRPORT, WI US",1.23345E+12,1.74649E+12,-7.83821E+11,2.53402E+14,Wisconsin,United States,44.783,-88.55,248.1
WBAN:54809,"WARSAW MUNICIPAL AIRPORT, IN US",1.10454E+12,1.74649E+12,8.12506E+11,2.53402E+14,Indiana,United States,41.27472,-85.84,259.1
WBAN:53943,"NATCHITOCHES REGIONAL AIRPORT, LA US",1.10454E+12,1.74649E+12,8.46806E+11,2.53402E+14,Louisiana,United States,31.73583,-93.09917,36.9
WBAN:04939,"MOORHEAD MUNICIPAL AIRPORT, MN US",1.10454E+12,1.74649E+12,-5.90115E+13,2.53402E+14,Minnesota,United States,46.83917,-96.66306,279.5
WBAN:04951,"MONTEVIDEO CHIPPEWA CO AIRPORT, MN US",1.10454E+12,1.74649E+12,7.02086E+11,2.53402E+14,Minnesota,United States,44.96889,-95.71,315.2
WBAN:03720,"MOORE CO AIRPORT, NC US",1.10454E+12,1.74649E+12,6.57418E+11,2.53402E+14,North Carolina,United States,35.23722,-79.39111,140.5
WBAN:63821,"WILKES CO AIRPORT, NC US",1.10454E+12,1.74649E+12,-5.90115E+13,2.53402E+14,North Carolina,United States,36.22278,-81.09833,396.2
WBAN:53951,"PAULS VALLEY MUNICIPAL AIRPORT, OK US",1.10454E+12,1.74649E+12,-5.90115E+13,2.53402E+14,Oklahoma,United States,34.71083,-97.22306,295
WBAN:64705,"BUTLER CO AIRPORT, PA US",1.10454E+12,1.74649E+12,6.75648E+11,2.53402E+14,Pennsylvania,United States,40.77694,-79.94972,380.1
WBAN:63802,"WISE LONESOME PINE AIRPORT, VA US",1.10454E+12,1.74649E+12,6.94224E+11,2.53402E+14,Virginia,United States,36.9875,-82.53,818.1
WBAN:03730,"WILLIAMSBURG JAMESTOWN AIRPORT, VA US",1.10454E+12,1.74649E+12,1.05106E+12,2.53402E+14,Virginia,United States,37.23917,-76.71611,14.9
WBAN:04865,"LAKELAND NOBLE LEE MEMORIAL FIELD AIRPORT, WI US",1.10454E+12,1.74649E+12,9.54547E+11,2.53402E+14,Wisconsin,United States,45.92778,-89.73083,496.8
WBAN:26497,"BIRCHWOOD AIRPORT, AK US",1.11594E+12,1.74649E+12,1.11577E+12,2.53402E+14,Alaska,United States,61.41639,-149.50722,29.3
WBAN:26648,"NOATAK AIRPORT, AK US",1.11853E+12,1.74649E+12,1.11698E+12,2.53402E+14,Alaska,United States,67.56611,-162.975,26.8
WBAN:53135,"LAUGHLIN BULLHEAD INTERNATIONAL AIRPORT, AZ US",1.11378E+12,1.74649E+12,1.11283E+12,2.53402E+14,Arizona,United States,35.15722,-114.55944,211.8
WBAN:54826,"SOUTH HAVEN AREA REGIONAL AIRPORT, MI US",1.1308E+12,1.74649E+12,1.1073E+12,2.53402E+14,Michigan,United States,42.35083,-86.25611,203
WBAN:63872,"EUFAULA WEEDON FIELD AIRPORT, AL US",1.15707E+12,1.74649E+12,1.63754E+12,2.53402E+14,Alabama,United States,31.95163,-85.13122,86.8
WBAN:53997,"COMANCHE CO CITY AIRPORT, TX US",1.13607E+12,1.74649E+12,-3.12682E+11,2.53402E+14,Texas,United States,31.91667,-98.60028,423.1
WBAN:94086,"PINEDALE RALPH WENZ FIELD AIRPORT, WY US",1.13607E+12,1.74649E+12,-3.12682E+11,2.53402E+14,Wyoming,United States,42.79556,-109.80694,2159.8
WBAN:94297,"COUPEVILLE NOLF, WA US",1.14316E+12,1.74649E+12,-3.12682E+11,2.53402E+14,Washington,United States,48.21667,-122.63333,60.7
WBAN:96401,"CHULITNA RIVER LODGE, AK US",1.11879E+12,1.70536E+12,7.41398E+11,2.53402E+14,Alaska,United States,62.82639,-149.90667,426.7
WBAN:03048,"SOCORRO 20 N, NM US",1.05373E+12,1.74649E+12,1.05373E+12,2.53402E+14,New Mexico,United States,34.3557,-106.8859,1477.4
WBAN:26494,"FAIRBANKS 11 NE, AK US",1.02885E+12,1.74649E+12,1.02885E+12,2.53402E+14,Alaska,United States,64.9735,-147.51,347.5
WBAN:21515,"HILO 5 S, HI US",1.12778E+12,1.74649E+12,1.12778E+12,2.53402E+14,Hawaii,United States,19.645,-155.0827,189.6
WBAN:94077,"HARRISON 20 SSE, NE US",1.06194E+12,1.74649E+12,1.06194E+12,2.53402E+14,Nebraska,United States,42.4247,-103.7363,1342.9
WBAN:54794,"DURHAM 2 N, NH US",1.00846E+12,1.74649E+12,1.00803E+12,2.53402E+14,New Hampshire,United States,43.1716,-70.9277,36.3
WBAN:03072,"BRONTE 11 NNE, TX US",1.16614E+12,1.74649E+12,1.16614E+12,2.53402E+14,Texas,United States,32.0408,-100.2495,608.7
WBAN:03079,"SAGUACHE 2 WNW, CO US",1.24528E+12,1.40158E+12,1.24528E+12,1.40158E+12,Colorado,United States,38.0989,-106.1709,2384.5
WBAN:03080,"RESERVE 1 W, NM US",1.24718E+12,1.40158E+12,1.24718E+12,1.40158E+12,New Mexico,United States,33.7149,-108.7771,1780.6
WBAN:03086,"SPRINGFIELD 6 WSW, CO US",1.27405E+12,1.40158E+12,1.27405E+12,1.40158E+12,Colorado,United States,37.3813,-102.7194,1389
WBAN:53013,"CEDAR CITY 18 SSE, UT US",1.28088E+12,1.40158E+12,1.28105E+12,1.40158E+12,Utah,United States,37.4572,-113.2248,1553.3
WBAN:53165,"DELTA 4 NE, UT US",1.28062E+12,1.40158E+12,1.28062E+12,1.40158E+12,Utah,United States,39.3872,-112.5095,1451.2
WBAN:94055,"BAKER MUNICIPAL AIRPORT, MT US",1.10454E+12,1.74649E+12,1.63754E+12,2.53402E+14,Montana,United States,46.35205,-104.26134,902.9
WBAN:00125,"WILLMAR MUNICIPAL AIRPORT JOHN L RICE FIELD, MN US",1.18524E+12,1.74649E+12,1.15707E+12,2.53402E+14,Minnesota,United States,45.117,-95.133,344.1
WBAN:00130,"PLEASANTON MUNICIPAL AIRPORT, TX US",1.17971E+12,1.74649E+12,23587200000,2.53402E+14,Texas,United States,28.95,-98.517,131.1
WBAN:14916,"GRAND FORKS INTERNATIONAL AIRPORT, ND US",-6.65366E+11,1.74649E+12,1.63754E+12,2.53402E+14,North Dakota,United States,47.94281,-97.18294,255.5
WBAN:03950,"LAWTON MUNICIPAL AIRPORT, OK US",1.10454E+12,1.74649E+12,1.63754E+12,2.53402E+14,Oklahoma,United States,34.55771,-98.4172,326
WBAN:14758,"NEW HAVEN TWEED AIRPORT, CT US",-6.9431E+11,1.74649E+12,1.0057E+12,2.53402E+14,Connecticut,United States,41.259,-72.88911,1.8
WBAN:12826,"HOMESTEAD AFB, FL US",-8.49398E+11,1.74649E+12,-4.4185E+11,2.53402E+14,Florida,United States,25.48333,-80.38333,1.5
WBAN:03855,"PENSACOLA FOREST SHERMAN NAS, FL US",-7.8624E+11,1.74649E+12,-4.63018E+11,2.53402E+14,Florida,United States,30.35,-87.31667,8.5
WBAN:94836,"GWINN K I SAWYER AFB, MI US",1.10454E+12,1.74649E+12,-4.18176E+11,2.53402E+14,Michigan,United States,46.35,-87.4,372.2
WBAN:13995,"SPRINGFIELD WEATHER SERVICE OFFICE AIRPORT, MO US",-6.9431E+11,1.74649E+12,1.63754E+12,2.53402E+14,Missouri,United States,37.23983,-93.38995,384.7
WBAN:13734,"MARTINSBURG EASTERN WEST VIRGINIA REGIONAL AIRPORT, WV US",-6.62688E+11,1.74649E+12,9.75456E+11,2.53402E+14,West Virginia,United States,39.40375,-77.97501,165
WBAN:94041,"GARRISON, ND US",1.10454E+12,1.74649E+12,8.95709E+11,2.53402E+14,North Dakota,United States,47.646142,-101.440584,582
WBAN:03196,"NOGALES INTERNATIONAL AIRPORT, AZ US",1.10454E+12,1.74649E+12,1.63754E+12,2.53402E+14,Arizona,United States,31.42076,-110.84655,1193
WBAN:03145,"YUMA MCAS, AZ US",2.23171E+11,1.74649E+12,10368000000,2.53402E+14,Arizona,United States,32.65,-114.61667,64.9
WBAN:23122,"SAN BERNARDINO INTERNATIONAL AIRPORT, CA US",-8.51645E+11,1.74649E+12,1.22792E+12,2.53402E+14,California,United States,34.09528,-117.23472,353.3
WBAN:93121,"TWENTYNINE PALMS MC, CA US",-7.7855E+11,1.74649E+12,1.63754E+12,2.53402E+14,California,United States,34.294,-116.14722,610.5
WBAN:93244,"SANTA YNEZ AIRPORT, CA US",1.12545E+12,1.74649E+12,7.02864E+11,2.53402E+14,California,United States,34.60694,-120.07556,204.5
WBAN:23206,"SACRAMENTO MATHER AFB, CA US",-8.94154E+11,1.74649E+12,-1.2623E+12,2.53402E+14,California,United States,38.56667,-121.3,30.2
WBAN:23224,"AUBURN MUNICIPAL AIRPORT, CA US",1.10454E+12,1.74649E+12,1.02972E+12,2.53402E+14,California,United States,38.95472,-121.08194,466.6
WBAN:93210,"OROVILLE MUNICIPAL AIRPORT, CA US",1.10454E+12,1.74649E+12,1.63754E+12,2.53402E+14,California,United States,39.4943,-121.62226,56.9
WBAN:12839,"MIAMI INTERNATIONAL AIRPORT, FL US",-6.9431E+11,1.74649E+12,1.63754E+12,2.53402E+14,Florida,United States,25.78805,-80.31694,1.4
WBAN:12889,"PINECASTLE NF, FL US",8.36266E+11,1.07283E+12,2.55139E+11,3.75926E+11,Florida,United States,29.14306,-81.63278,28
WBAN:03813,"MACON MIDDLE GA REGIONAL AIRPORT, GA US",-8.8992E+11,1.74649E+12,1.63754E+12,1.71444E+12,Georgia,United States,32.68889,-83.65296,104.5
WBAN:13864,"MARIETTA DOBBINS AFB, GA US",-7.36387E+11,1.74649E+12,1.89302E+11,2.53402E+14,Georgia,United States,33.91667,-84.51667,325.5
WBAN:93817,"EVANSVILLE REGIONAL AIRPORT, IN US",-6.9431E+11,1.74649E+12,1.63754E+12,2.53402E+14,Indiana,United States,38.05015,-87.51465,122.5
WBAN:94895,"MUNCIE DELAWARE CO AIRPORT, IN US",1.10454E+12,1.74649E+12,1.63754E+12,2.53402E+14,Indiana,United States,40.23451,-85.39356,285.2
WBAN:03967,"OLATHE JOHNSON CO EXECUTIVE AIRPORT, KS US",1.10454E+12,1.74649E+12,1.63754E+12,2.53402E+14,Kansas,United States,38.84997,-94.73949,327.2
WBAN:93990,"HILL CITY MUNICIPAL AIRPORT, KS US",-6.62688E+11,1.74649E+12,1.63754E+12,2.53402E+14,Kansas,United States,39.37412,-99.82987,667.1
WBAN:14703,"CHICOPEE FALLS WESTOVER FIELD, MA US",-9.07373E+11,1.74649E+12,-1.76256E+11,2.53402E+14,Massachusetts,United States,42.2,-72.53333,75
WBAN:54769,"PLYMOUTH MUNICIPAL AIRPORT, MA US",1.10454E+12,1.74649E+12,1.63754E+12,2.53402E+14,Massachusetts,United States,41.90851,-70.72785,42.2
WBAN:14850,"TRAVERSE CITY CHERRY CAPITAL AIRPORT, MI US",-6.65366E+11,1.74649E+12,1.63754E+12,2.53402E+14,Michigan,United States,44.73895,-85.5679,185.2
WBAN:04881,"MANISTIQUE SCHOOLCRAFT CO AIRPORT, MI US",1.10454E+12,1.74649E+12,1.3487E+11,2.53402E+14,Michigan,United States,45.98333,-86.18333,209.1
WBAN:03961,"NATCHEZ ADAM CO AIRPORT, MS US",1.10454E+12,1.74649E+12,1.63814E+11,2.53402E+14,Mississippi,United States,31.61667,-91.28333,82.9
WBAN:13939,"GREENVILLE ASOS, MS US",-8.81971E+11,1.74649E+12,1.63754E+12,2.53402E+14,Mississippi,United States,33.49385,-90.98058,37.8
WBAN:94012,"HAVRE AIRPORT ASOS, MT US",-2.81318E+11,1.74649E+12,1.63754E+12,2.53402E+14,Montana,United States,48.54254,-109.76439,788.2
WBAN:14939,"LINCOLN AIRPORT, NE US",-8.60026E+11,1.74649E+12,1.63754E+12,2.53402E+14,Nebraska,United States,40.84781,-96.76467,356.7
WBAN:00189,"NEWBERRY CO AIRPORT, SC US",1.23111E+12,1.74649E+12,-7.33795E+11,2.53402E+14,South Carolina,United States,34.3,-81.633,173.1
WBAN:00190,"LAURENS CO AIRPORT, SC US",1.23111E+12,1.74649E+12,-1.94659E+11,2.53402E+14,South Carolina,United States,34.5,-81.95,212.1
WBAN:00191,"BERKELEY CO AIRPORT, SC US",1.23111E+12,1.74649E+12,-7.02259E+11,2.53402E+14,South Carolina,United States,33.183,-80.033,22.3
WBAN:00192,"CHESTER CATAWBA REGIONAL AIRPORT, SC US",1.23111E+12,1.74649E+12,-8.23219E+11,2.53402E+14,South Carolina,United States,34.783,-81.2,200.3
WBAN:00193,"AIKEN MUNICIPAL AIRPORT, SC US",1.23111E+12,1.74649E+12,-8.52077E+11,2.53402E+14,South Carolina,United States,33.65,-81.683,161.2
WBAN:00194,"BARNWELL REGIONAL AIRPORT, SC US",1.23111E+12,1.74649E+12,-8.41709E+11,2.53402E+14,South Carolina,United States,33.25,-81.383,75.3
WBAN:00195,"WOODWARD FIELD AIRPORT, SC US",1.23111E+12,1.74649E+12,-1.01511E+12,2.53402E+14,South Carolina,United States,34.283,-80.567,92
WBAN:00196,"WILLIAMSBURG REGIONAL AIRPORT, SC US",1.23111E+12,1.74649E+12,15638400000,2.53402E+14,South Carolina,United States,33.717,-79.85,20.1
WBAN:00197,"CHERAW MUNICIPAL AIRPORT LYNCH BELLINGER FIELD, SC US",1.23111E+12,1.74649E+12,-7.8624E+11,2.53402E+14,South Carolina,United States,34.717,-79.95,73.2
WBAN:00198,"CHARLESTON EXECUTIVE AIRPORT, SC US",1.357E+12,1.74649E+12,-8.44301E+11,2.53402E+14,South Carolina,United States,32.701,-80.003,5.2
WBAN:00199,"LANCASTER CO MC WHIRTER FIELD AIRPORT, SC US",1.23111E+12,1.74649E+12,18316800000,2.53402E+14,South Carolina,United States,34.717,-80.85,148.1
WBAN:00200,"MARION CO AIRPORT, SC US",1.23111E+12,1.74649E+12,-2.91946E+11,2.53402E+14,South Carolina,United States,34.181,-79.335,28
WBAN:00201,"LOWCOUNTRY REGIONAL AIRPORT, SC US",1.357E+12,1.74649E+12,-1.01779E+12,2.53402E+14,South Carolina,United States,32.917,-80.633,31.1
WBAN:00202,"SUMTER AIRPORT, SC US",1.23111E+12,1.74649E+12,-4.07549E+11,2.53402E+14,South Carolina,United States,34,-80.367,55.2
WBAN:00203,"BEAUFORT CO AIRPORT, SC US",1.23241E+12,1.74649E+12,1.23552E+11,2.53402E+14,South Carolina,United States,32.4121,-80.6343,38.1
WBAN:00204,"CONWAY HORRY CO AIRPORT, SC US",1.24191E+12,1.74649E+12,1.23172E+12,2.53402E+14,South Carolina,United States,33.828,-79.122,10.1
WBAN:00205,"LINCOLN REGIONAL AIRPORT KARL HARDER FIELD, CA US",1.24191E+12,1.74649E+12,-8.04816E+11,2.53402E+14,California,United States,38.909,-121.351,37.2
WBAN:00206,"COLUMBIA AIRPORT, CA US",1.23241E+12,1.74649E+12,-9.38909E+11,2.53402E+14,California,United States,38.033,-120.417,646.2
WBAN:00207,"BRANSON AIRPORT, MO US",1.23345E+12,1.74649E+12,1.22282E+12,2.53402E+14,Missouri,United States,36.533,-93.2,397.2
WBAN:00208,"HOUSTON EXECUTIVE AIRPORT, TX US",1.23371E+12,1.74649E+12,1.23371E+12,2.53402E+14,Texas,United States,29.8,-95.9,51.2
WBAN:00209,"BOWIE MUNICIPAL AIRPORT, TX US",1.40676E+12,1.74649E+12,-1.15862E+11,2.53402E+14,Texas,United States,33.6,-97.783,336.2
WBAN:00210,"ELIZABETHTON MUNICIPAL AIRPORT, TN US",1.40676E+12,1.74649E+12,-5.54947E+11,2.53402E+14,Tennessee,United States,36.367,-82.167,486.2
WBAN:00211,"MADISON MUNICIPAL AIRPORT, SD US",1.23682E+12,1.74649E+12,-1.57766E+11,2.53402E+14,South Dakota,United States,44.016,-97.086,523
WBAN:00212,"BLACKWELL TONKAWA MUNICIPAL AIRPORT, OK US",1.23682E+12,1.74649E+12,1.47226E+11,2.53402E+14,Oklahoma,United States,36.75,-97.35,314.2
WBAN:00213,"PAMPA MESA VISTA AIRPORT, TX US",1.23803E+12,1.74649E+12,1.23803E+12,2.53402E+14,Texas,United States,35.883,-101.033,845.2
WBAN:00214,"STIGLER REGIONAL AIRPORT, OK US",1.23682E+12,1.74649E+12,2.20925E+11,2.53402E+14,Oklahoma,United States,35.283,-95.1,183.2
WBAN:00215,"CLARENCE E PAGE MUNICIPAL AIRPORT, OK US",1.23803E+12,1.74649E+12,1.23803E+12,2.53402E+14,Oklahoma,United States,35.483,-97.817,413
WBAN:00216,"JACK BARSTOW AIRPORT, MI US",1.23898E+12,1.74649E+12,-6.73229E+11,2.53402E+14,Michigan,United States,43.663,-84.261,194.2
WBAN:00217,"MARLBORO CO JETPPORT H E AVENT FIELD, SC US",1.24019E+12,1.74649E+12,1.24019E+12,2.53402E+14,South Carolina,United States,34.617,-79.733,45.1
WBAN:00218,"SUMMERVILLE AIRPORT, SC US",1.2388E+12,1.74649E+12,5.28509E+11,2.53402E+14,South Carolina,United States,33.063,-80.279,17.1
WBAN:00219,"HARTSVILLE REGIONAL AIRPORT, SC US",1.23872E+12,1.74649E+12,-3.39379E+11,2.53402E+14,South Carolina,United States,34.4,-80.117,111.3
WBAN:00220,"FAIRFIELD CO AIRPORT, SC US",1.24027E+12,1.74649E+12,1.70813E+11,2.53402E+14,South Carolina,United States,34.315,-81.109,176.2
WBAN:00221,"H A CLARK MEMORIAL FIELD AIRPORT, AZ US",1.24174E+12,1.74649E+12,-8.57347E+11,2.53402E+14,Arizona,United States,35.3,-112.2,2035.1
WBAN:00222,"CLINTON MEMORIAL AIRPORT, MO US",1.242E+12,1.74649E+12,1.242E+12,2.53402E+14,Missouri,United States,38.35,-93.683,251.2
WBAN:00223,"HOUSTON SOUTHWEST AIRPORT, TX US",1.24381E+12,1.74649E+12,2.86675E+11,2.53402E+14,Texas,United States,29.5,-95.477,21
WBAN:00224,"BEND MUNICIPAL AIRPORT, OR US",1.24312E+12,1.74649E+12,-8.70566E+11,2.53402E+14,Oregon,United States,44.095,-121.2,1055.2
WBAN:00225,"HORSESHOE BAY RESORT AIRPORT, TX US",1.24416E+12,1.74649E+12,65750400000,2.53402E+14,Texas,United States,30.533,-98.367,333.1
WBAN:00226,"BUCKEYE MUNICIPAL AIRPORT, AZ US",1.357E+12,1.74649E+12,-5.90115E+13,2.53402E+14,Arizona,United States,33.417,-112.683,311.2
WBAN:00227,"PLACERVILLE AIRPORT, CA US",1.24727E+12,1.74649E+12,-9.38909E+11,2.53402E+14,California,United States,38.717,-120.75,787.3
WBAN:00228,"HALF MOON BAY AIRPORT, CA US",1.24779E+12,1.74649E+12,-8.46979E+11,2.53402E+14,California,United States,37.513,-122.501,20.1
WBAN:00229,"LAMPASAS AIRPORT, TX US",1.24796E+12,1.7121E+12,-97372800000,2.53402E+14,Texas,United States,31.106,-98.196,370
WBAN:00230,"AUSTIN EXECUTIVE AIRPORT, TX US",1.24822E+12,1.74649E+12,-1.2623E+11,2.53402E+14,Texas,United States,30.395,-97.567,188.1
WBAN:00231,"HALIFAX NORTHAMPTON REGIONAL AIRPORT, NC US",1.24822E+12,1.74649E+12,1.23345E+12,2.53402E+14,North Carolina,United States,36.33,-77.635,44.2
WBAN:00232,"UNION CO AIRPORT, OH US",1.24813E+12,1.74649E+12,-79056000000,2.53402E+14,Ohio,United States,40.225,-83.352,311.2
WBAN:00235,"CRYSTAL RIVER AIRPORT, FL US",1.25004E+12,1.74649E+12,-9.38909E+11,2.53402E+14,Florida,United States,28.867,-82.567,3
WBAN:00236,"MIDDLETON MUNICIPAL MOREY FIELD AIRPORT, WI US",1.40676E+12,1.74649E+12,-6.73229E+11,2.53402E+14,Wisconsin,United States,43.117,-89.533,283.2
WBAN:00237,"FIELD OF DREAMS AIRPORT, MN US",1.40676E+12,1.74649E+12,1.094E+12,2.53402E+14,Minnesota,United States,46.023,-92.895,311.2
WBAN:00238,"SAUK CENTRE MUNICIPAL AIRPORT, MN US",1.40676E+12,1.74649E+12,-7.15478E+11,2.53402E+14,Minnesota,United States,45.707,-94.933,379.2
WBAN:00239,"OZONA MUNICIPAL AIRPORT, TX US",1.2585E+12,1.74649E+12,-6.02294E+11,2.53402E+14,Texas,United States,30.735,-101.203,726
WBAN:00240,"IONIA CO AIRPORT, MI US",1.40676E+12,1.74649E+12,-9.38909E+11,2.53402E+14,Michigan,United States,42.938,-85.061,249
WBAN:00241,"VIROQUA MUNICIPAL AIRPORT, WI US",1.40676E+12,1.74649E+12,-1.78934E+11,2.53402E+14,Wisconsin,United States,43.579,-90.913,394.1
WBAN:00242,INDEPENDENCE OIL PLATFORM,1.26204E+12,1.46604E+12,1.26204E+12,2.53402E+14,,,28.083,-87.983,224
WBAN:00243,MAGNOLIA OIL PLATFORM,1.26204E+12,1.74649E+12,1.26204E+12,2.53402E+14,,,27.2,-92.2,224
WBAN:00244,SHIP SHOAL OIL PLATFORM,1.26204E+12,1.58233E+12,1.26204E+12,2.53402E+14,,,28.6,-91.2,224
WBAN:00245,INNOVATOR OIL PLATFORM,62985600000,1.73318E+11,-5.90115E+13,2.53402E+14,,,28.217,-89.617,224
WBAN:00246,EAST BREAKS OIL PLATFORM,1.26204E+12,1.65007E+12,1.26204E+12,2.53402E+14,,,27.817,-94.317,224
WBAN:00247,GUNNISON OIL PLATFORM,1.26204E+12,1.74649E+12,1.26204E+12,2.53402E+14,,,27.3,-93.533,224
WBAN:00248,"JESUP WAYNE CO AIRPORT, GA US",1.26325E+12,1.74649E+12,1.26325E+12,2.53402E+14,Georgia,United States,31.554,-81.883,33.2
WBAN:00249,"WEST GEORGIA REGIONAL AIRPORT O V GRAY FIELD, GA US",1.26472E+12,1.74649E+12,23587200000,2.53402E+14,Georgia,United States,33.633,-85.15,354.2
WBAN:00250,"HENRY TIFT MYERS AIRPORT, GA US",1.28088E+12,1.74649E+12,-8.12678E+11,2.53402E+14,Georgia,United States,31.429,-83.489,108.2
WBAN:00251,"DARKE CO AIRPORT, OH US",1.26801E+12,1.74614E+12,-1.76256E+11,2.53402E+14,Ohio,United States,40.204,-84.532,307.2
WBAN:00252,"PAULDING NORTHWEST ATLANTA AIRPORT, GA US",1.27215E+12,1.74649E+12,1.2255E+12,2.53402E+14,Georgia,United States,33.912,-84.941,393.2
WBAN:00254,EAST CAMERON 278 OIL PLATFORM,1.27284E+12,1.53732E+12,1.27284E+12,2.53402E+14,,,28.433,-92.883,224
WBAN:00255,SABINE OIL PLATFORM,1.27284E+12,1.5514E+12,1.27284E+12,2.53402E+14,,,29.483,-93.633,224
WBAN:00256,SOUTH MARSH 268 OIL PLATFORM,1.27284E+12,1.63296E+12,1.27284E+12,2.53402E+14,,,29.117,-91.867,224
WBAN:00257,VERMILLION 26 OIL PLATFORM,1.27284E+12,1.36676E+12,1.27284E+12,2.53402E+14,,,29.467,-92.367,224
WBAN:00258,"ALEXANDER MUNICIPAL AIRPORT, NM US",1.40676E+12,1.54155E+12,2.94365E+11,2.53402E+14,New Mexico,United States,34.645,-106.834,1583.1
WBAN:00259,GALVESTON 424 OIL PLATFORM,1.27319E+12,1.45705E+12,1.27319E+12,2.53402E+14,,,28.577,-94.977,0.3
WBAN:00270,"FAITH RANCH AIRPORT, TX US",1.27786E+12,1.74649E+12,1.27786E+12,2.53402E+14,Texas,United States,28.209,-100.019,236.2
WBAN:00278,"JOHN BELL WILLIAMS AIRPORT, MS US",1.3017E+12,1.74649E+12,-8.12678E+11,2.53402E+14,Mississippi,United States,32.304,-90.411,75.3
WBAN:00392,"HOLLISTER MUNICIPAL AIRPORT, CA US",1.23345E+12,1.74649E+12,-8.44301E+11,2.53402E+14,California,United States,36.9,-121.417,72.2
WBAN:00261,MUSTANG ISLAND 31,1.27414E+12,1.38249E+12,1.27414E+12,2.53402E+14,,,27.283,-96.733,0.3
WBAN:00262,MUSTANG ISLAND A85A,1.40676E+12,1.587E+12,-5.90115E+13,2.53402E+14,,,27.733,-96.183,0.3
WBAN:00263,"BOERNE STAGE FIELD AIRPORT, TX US",1.40676E+12,1.74649E+12,5.44234E+11,2.53402E+14,Texas,United States,29.724,-98.695,422.1
WBAN:00264,"NAMPA MUNICIPAL AIRPORT, ID US",1.2738E+12,1.74649E+12,-7.49606E+11,2.53402E+14,Idaho,United States,43.581,-116.523,773.3
WBAN:00265,"FULTON CO AIRPORT, IN US",1.27587E+12,1.74649E+12,-9.38909E+11,2.53402E+14,Indiana,United States,41.066,-86.182,241.1
WBAN:00266,"CARRINGTON MUNICIPAL AIRPORT, ND US",1.27613E+12,1.74649E+12,-7.7328E+11,2.53402E+14,North Dakota,United States,47.451,-99.151,490.1
WBAN:00267,"THOMASVILLE REGIONAL AIRPORT, GA US",1.27613E+12,1.74649E+12,-8.44301E+11,2.53402E+14,Georgia,United States,30.902,-83.881,80.2
WBAN:00268,"MINDEN AIRPORT, LA US",1.30421E+12,1.74649E+12,-4.73386E+11,2.53402E+14,Louisiana,United States,32.646,-93.298,85
WBAN:00269,"BOULDER CITY MUNICIPAL AIRPORT, NV US",1.27734E+12,1.74649E+12,6.49469E+11,2.53402E+14,Nevada,United States,35.947,-114.861,671.2
WBAN:00271,"PICKENS CO AIRPORT, SC US",1.27967E+12,1.74649E+12,1.27967E+12,2.53402E+14,South Carolina,United States,34.817,-82.7,309.1
WBAN:00272,BOOMVANG SPAR OIL PLATFORM,1.28019E+12,1.74649E+12,1.28019E+12,2.53402E+14,,,27.35,-94.633,101.2
WBAN:00273,"COVINGTON MUNICIPAL AIRPORT, GA US",-2.52547E+11,3024000000,-2.76221E+11,2.53402E+14,Georgia,United States,33.632,-83.85,242
WBAN:00274,"LEE CO AIRPORT, VA US",1.28503E+12,1.74649E+12,1.03084E+12,2.53402E+14,Virginia,United States,36.654,-83.218,430.1
WBAN:00275,"GEORGE M BRYAN AIRPORT, MS US",1.357E+12,1.74649E+12,-9.38909E+11,2.53402E+14,Mississippi,United States,33.433,-88.849,101.2
WBAN:00276,"COLEMAN MUNICIPAL AIRPORT, TX US",1.2858E+12,1.74649E+12,-8.75837E+11,2.53402E+14,Texas,United States,31.841,-99.404,517.2
WBAN:00277,"COURTLAND AIRPORT, AL US",1.73033E+12,1.74649E+12,5.33779E+11,2.53402E+14,Alabama,United States,34.659,-87.349,179.2
WBAN:00280,"MEADOW LAKE AIRPORT, CO US",1.29116E+12,1.74649E+12,-68428800000,2.53402E+14,Colorado,United States,38.946,-104.57,2095.2
WBAN:00281,"ROLLA MUNICIPAL AIRPORT, ND US",1.29004E+12,1.74649E+12,-7.25846E+11,2.53402E+14,North Dakota,United States,48.884,-99.621,555
WBAN:00282,"BEACH AIRPORT, ND US",1.29004E+12,1.74649E+12,1.44547E+11,2.53402E+14,North Dakota,United States,46.925,-103.982,840
WBAN:00283,"CAVALIER MUNICIPAL AIRPORT, ND US",1.29004E+12,1.74649E+12,-6.70637E+11,2.53402E+14,North Dakota,United States,48.784,-97.632,272.2
WBAN:00284,"SCOTTSBORO MUNICIPAL AIRPORT WORD FIELD, AL US",1.29108E+12,1.74649E+12,1.65542E+11,2.53402E+14,Alabama,United States,34.689,-86.006,198.1
WBAN:00286,"BLACK RIVER FALLS AREA AIRPORT, WI US",1.29004E+12,1.74649E+12,20995200000,2.53402E+14,Wisconsin,United States,44.251,-90.855,255.1
WBAN:00287,"CROSBY MUNICIPAL AIRPORT, ND US",1.29004E+12,1.74649E+12,-1.01511E+12,2.53402E+14,North Dakota,United States,48.929,-103.297,594.1
WBAN:00288,"ROBERTSON FIELD AIRPORT, ND US",1.40676E+12,1.74649E+12,-1.00475E+12,2.53402E+14,North Dakota,United States,48.753,-98.393,490.1
WBAN:00290,"TARBORO EDGECOMBE AIRPORT, NC US",1.29038E+12,1.74649E+12,-2.76221E+11,2.53402E+14,North Carolina,United States,35.937,-77.547,16.2
WBAN:00291,"HUTSON FIELD AIRPORT, ND US",1.29004E+12,1.74649E+12,-7.02259E+11,2.53402E+14,North Dakota,United States,48.405,-97.371,251.2
WBAN:00293,"RUGBY MUNICIPAL AIRPORT, ND US",1.29194E+12,1.74649E+12,1.29194E+12,2.53402E+14,North Dakota,United States,48.39,-100.024,472.1
WBAN:00294,"WATFORD CITY MUNICIPAL AIRPORT, ND US",1.29194E+12,1.74649E+12,1.29194E+12,2.53402E+14,North Dakota,United States,47.796,-103.254,643.1
WBAN:00295,"JESSE VIERTEL MEMORIAL AIRPORT, MO US",1.29133E+12,1.74649E+12,1.55088E+11,2.53402E+14,Missouri,United States,38.947,-92.683,218.2
WBAN:00296,"MANDAN MUNICIPAL AIRPORT, ND US",1.29004E+12,1.74649E+12,-6.31238E+11,2.53402E+14,North Dakota,United States,46.768,-100.894,593.1
WBAN:00297,"MANITOWISH WATERS AIRPORT, WI US",1.32391E+12,1.74649E+12,-7.65331E+11,2.53402E+14,Wisconsin,United States,46.117,-89.883,491
WBAN:00298,"DUPONT LAPEER AIRPORT, MI US",1.357E+12,1.74649E+12,-8.04816E+11,2.53402E+14,Michigan,United States,43.067,-83.267,254.2
WBAN:00299,"DELAND MUNICIPAL AIRPORT SYDNEY H TAYLOR FIELD, FL US",1.32875E+12,1.74649E+12,-9.38909E+11,2.53402E+14,Florida,United States,29.067,-81.283,24.1
WBAN:00300,"STANLEY MUNICIPAL AIRPORT, ND US",1.29168E+12,1.74649E+12,57801600000,2.53402E+14,North Dakota,United States,48.301,-102.406,684.3
WBAN:00301,"BARNES CO MUNICIPAL AIRPORT, ND US",1.29237E+12,1.74649E+12,-9.80986E+11,2.53402E+14,North Dakota,United States,46.942,-98.018,427
WBAN:00303,SALSA,1.29488E+12,1.74649E+12,1.29488E+12,2.53402E+14,,,27.833,-91.983,30.2
WBAN:00304,EUGENE ISLAND OIL PLATFORM,1.29488E+12,1.63132E+12,1.29488E+12,2.53402E+14,,,28.633,-91.483,28
WBAN:00305,EAST CAMERON 47 OIL PLATFORM,1.29488E+12,1.34395E+12,1.29488E+12,2.53402E+14,,,29.433,-92.983,29.3
WBAN:00306,HIGH ISLAND 179 OIL PLATFORM,1.29488E+12,1.58527E+12,1.29488E+12,2.53402E+14,,,29.183,-94.517,75.3
WBAN:00307,MAIN PASS 140B,1.29488E+12,1.65525E+12,1.29488E+12,2.53402E+14,,,29.296,-88.842,25
WBAN:00308,NORTH PADRE ISLAND,1.29488E+12,1.41471E+12,1.29488E+12,2.53402E+14,,,26.833,-96.933,25.3
WBAN:00309,WEST CAMERON 368 A OIL PLATFORM,1.29488E+12,1.44478E+12,1.29488E+12,2.53402E+14,,,28.917,-93.3,34.1
WBAN:00310,"BOUNDARY CO AIRPORT, ID US",1.29531E+12,1.74649E+12,-6.73229E+11,2.53402E+14,Idaho,United States,48.726,-116.295,711.1
WBAN:00311,"ROSCOE TURNER AIRPORT, MS US",1.29591E+12,1.74649E+12,1.29591E+12,2.53402E+14,Mississippi,United States,34.915,-88.604,130.1
WBAN:00312,ATLANTIS OIL PLATFORM,1.29972E+12,1.74649E+12,1.29972E+12,2.53402E+14,,,27.2,-90.033,50.3
WBAN:00313,"BEAUMONT MUNICIPAL AIRPORT, TX US",1.29972E+12,1.74649E+12,-1.01779E+12,2.53402E+14,Texas,United States,30.071,-94.216,10.1
WBAN:00314,"FLETCHER FIELD AIRPORT, MS US",1.2998E+12,1.74649E+12,-8.17862E+11,2.53402E+14,Mississippi,United States,34.3,-90.512,53
WBAN:00315,"DELAWARE MUNICIPAL JIM MOORE FIELD AIRPORT, OH US",1.30015E+12,1.74649E+12,-7.70602E+11,2.53402E+14,Ohio,United States,40.28,-83.115,288
WBAN:00316,"CUMBERLAND MUNICIPAL AIRPORT, WI US",1.29963E+12,1.74649E+12,-7.33795E+11,2.53402E+14,Wisconsin,United States,45.506,-91.981,378.3
WBAN:00317,"BROOKHAVEN LINCOLN CO AIRPORT, MS US",1.3017E+12,1.74649E+12,-4.60339E+11,2.53402E+14,Mississippi,United States,31.606,-90.409,149
WBAN:00318,"LINTON MUNICIPAL AIRPORT, ND US",1.30524E+12,1.74649E+12,-6.10157E+11,2.53402E+14,North Dakota,United States,46.218,-100.245,542.2
WBAN:00319,"WRAY MUNICIPAL AIRPORT, CO US",1.40676E+12,1.74649E+12,-7.83821E+11,2.53402E+14,Colorado,United States,40.1,-102.233,1121.1
WBAN:00320,"PETALUMA MUNICIPAL AIRPORT, CA US",1.40676E+12,1.74649E+12,-6.49642E+11,2.53402E+14,California,United States,38.25,-122.6,27.1
WBAN:00321,"OAKES MUNICIPAL AIRPORT, ND US",1.40867E+12,1.74649E+12,3.6815E+11,2.53402E+14,North Dakota,United States,46.167,-98.083,407.2
WBAN:00322,"HARVEY MUNICIPAL AIRPORT, ND US",1.40676E+12,1.74649E+12,1.03343E+12,2.53402E+14,North Dakota,United States,47.783,-99.933,489.2
WBAN:00323,"WAHOO MUNICIPAL AIRPORT, NE US",1.30559E+12,1.74649E+12,-7.25846E+11,2.53402E+14,Nebraska,United States,41.233,-96.6,373.1
WBAN:00324,"BELLEFONTAINE REGIONAL AIRPORT, OH US",1.30516E+12,1.74398E+12,1.02816E+12,2.53402E+14,Ohio,United States,40.367,-83.817,342.3
WBAN:00325,"QUINCY MUNICIPAL AIRPORT, FL US",1.40676E+12,1.74649E+12,-9.38909E+11,2.53402E+14,Florida,United States,30.598,-84.557,21
WBAN:00326,"FERNANDINA BEACH MUNICIPAL AIRPORT, FL US",1.30516E+12,1.74649E+12,-7.96867E+11,2.53402E+14,Florida,United States,30.617,-81.467,5.2
WBAN:00327,"COOPERSTOWN MUNICIPAL AIRPORT, ND US",1.44323E+12,1.74649E+12,-6.99581E+11,2.53402E+14,North Dakota,United States,47.423,-98.106,434
WBAN:00328,"JIMMY CARTER REGIONAL AIRPORT, GA US",1.31034E+12,1.74649E+12,-9.10051E+11,2.53402E+14,Georgia,United States,32.11,-84.189,142.6
WBAN:00329,"CAMDENTON MEMORIAL AIRPORT, MO US",1.30939E+12,1.7464E+12,-7.28525E+11,2.53402E+14,Missouri,United States,37.974,-92.691,324
WBAN:00330,"EAST GEORGIA REGIONAL AIRPORT, GA US",1.30974E+12,1.74649E+12,-8.70566E+11,2.53402E+14,Georgia,United States,32.609,-82.37,100.3
WBAN:00331,MAIN PASS 289 C OIL PLATFORM,1.31414E+12,1.68834E+12,1.31414E+12,2.53402E+14,,,29.248,-88.441,115.2
WBAN:00332,VERMILION 331 OIL PLATFORM,1.31423E+12,1.69629E+12,1.31423E+12,2.53402E+14,,,28.27,-92.264,90.2
WBAN:00333,"PORT FORCHON HELIPORT, LA US",1.31743E+12,1.60194E+12,1.31423E+12,2.53402E+14,Louisiana,United States,29.117,-90.2,30.2
WBAN:00334,"TUCKER GUTHRIE MEMORIAL AIRPORT, KY US",1.40676E+12,1.74649E+12,-2.57731E+11,2.53402E+14,Kentucky,United States,36.859,-83.358,473
WBAN:00335,"BUTLER MUNICIPAL AIRPORT, GA US",1.4313E+12,1.74649E+12,-9.04781E+11,2.53402E+14,Georgia,United States,32.567,-84.251,203.3
WBAN:00336,"LOGANSPORT CASS CO AIRPORT, IN US",1.31976E+12,1.74649E+12,-3.2089E+11,2.53402E+14,Indiana,United States,40.711,-86.375,225.2
WBAN:00337,"HEART OF GEORGIA REGIONAL AIRPORT, GA US",1.32019E+12,1.74649E+12,1.32019E+12,2.53402E+14,Georgia,United States,32.214,-83.128,93.3
WBAN:00338,"TYNDALL DRONE RUNWAY, FL US",1.32745E+12,1.74649E+12,1.32382E+12,2.53402E+14,Florida,United States,30.033,-85.533,5.2
WBAN:00340,"SILER CITY MUNICIPAL AIRPORT, NC US",1.32391E+12,1.7464E+12,-1.42128E+11,2.53402E+14,North Carolina,United States,35.704,-79.504,187.1
WBAN:00341,"TEN SLEEP, WY US",1.32788E+12,1.35536E+12,1.29635E+12,2.53402E+14,Wyoming,United States,44.15,-107.167,2741.1
WBAN:00342,"SOUTH PASS, WY US",1.32788E+12,1.72541E+12,1.29635E+12,2.53402E+14,Wyoming,United States,42.517,-108.783,2588.1
WBAN:00343,"ST MARYS HOSPITAL, MN US",1.40676E+12,1.74649E+12,-5.90115E+13,2.53402E+14,Minnesota,United States,44.017,-92.483,355.1
WBAN:00344,"WINCHESTER MUNICIPAL AIRPORT, TN US",1.32875E+12,1.74649E+12,0,2.53402E+14,Tennessee,United States,35.178,-86.066,298.1
WBAN:00346,"TRINITY CENTER AIRPORT, CA US",1.40676E+12,1.74649E+12,-2.94538E+11,2.53402E+14,California,United States,40.983,-122.694,728.2
WBAN:00347,"LA PORTE MUNICIPAL AIRPORT, IN US",1.33332E+12,1.74649E+12,-9.38909E+11,2.53402E+14,Indiana,United States,41.572,-86.735,247.2
WBAN:00348,"TULLAHOMA REGIONAL AIRPORT WILLIAM NORTHERN FIELD, TN US",1.33384E+12,1.74649E+12,-8.60026E+11,2.53402E+14,Tennessee,United States,35.38,-86.246,330.1
WBAN:00349,"ANDREWS CO AIRPORT, TX US",1.40676E+12,1.74649E+12,-6.86448E+11,2.53402E+14,Texas,United States,32.331,-102.53,967.1
WBAN:00350,"FITZGERALD MUNICIPAL AIRPORT, GA US",1.34015E+12,1.74649E+12,-7.65331E+11,2.53402E+14,Georgia,United States,31.684,-83.27,111.3
WBAN:00351,"CAMERON MUNICIPAL AIRPORT, TX US",1.33583E+12,1.74649E+12,-7.70602E+11,2.53402E+14,Texas,United States,30.879,-96.971,123.1
WBAN:00352,"HAZLEHURST AIRPORT, GA US",1.34145E+12,1.74649E+12,-2.02608E+11,2.53402E+14,Georgia,United States,31.885,-82.647,78
WBAN:00353,"BOYSEN THERMOPOL, WY US",1.34421E+12,1.74649E+12,1.34309E+12,2.53402E+14,Wyoming,United States,43.467,-108.389,2225
WBAN:00354,"MIDWEST NATIONAL AIR CENTER AIRPORT, MO US",1.34551E+12,1.74649E+12,1.34551E+12,2.53402E+14,Missouri,United States,39.332,-94.31,237.1
WBAN:00355,"CHEROKEE CO AIRPORT, GA US",1.10454E+12,1.74649E+12,1.08449E+12,2.53402E+14,Georgia,United States,34.317,-84.417,372.2
WBAN:00356,"CAMBRIDGE DORCHESTER AIRPORT, MD US",1.15983E+12,1.74649E+12,-1.04406E+12,2.53402E+14,Maryland,United States,38.533,-76.033,6.1
WBAN:00357,"HAMILTON MUNICIPAL AIRPORT, TX US",1.23077E+12,1.74649E+12,-8.3376E+11,2.53402E+14,Texas,United States,31.666,-98.149,396.2
WBAN:00358,"COLLEGE PARK AIRPORT, MD US",1.16173E+12,1.74649E+12,-9.38909E+11,2.53402E+14,Maryland,United States,38.981,-76.922,15.2
WBAN:00359,"SOUTHLAND FIELD AIRPORT, LA US",1.16165E+12,1.74649E+12,5.54774E+11,2.53402E+14,Louisiana,United States,30.131,-93.376,3
WBAN:00360,"OKEECHOBEE CO AIRPORT, FL US",1.16891E+12,1.74649E+12,-9.38909E+11,2.53402E+14,Florida,United States,27.267,-80.85,10.1
WBAN:00361,"GLASGOW MUNICIPAL AIRPORT, KY US",1.10454E+12,1.74649E+12,-2.34144E+11,2.53402E+14,Kentucky,United States,37.033,-85.95,218.2
WBAN:00362,"GATESVILLE MUNICIPAL AIRPORT, TX US",1.10454E+12,1.74649E+12,1.09987E+12,2.53402E+14,Texas,United States,31.417,-97.8,276.1
WBAN:00363,"SKYHAVEN AIRPORT, MO US",1.19249E+12,1.74649E+12,-7.28525E+11,2.53402E+14,Missouri,United States,38.783,-93.8,243.2
WBAN:00364,"THOMAS P STAFFORD AIRPORT, OK US",1.195E+12,1.74649E+12,-5270400000,2.53402E+14,Oklahoma,United States,35.55,-98.667,489.2
WBAN:00365,"T P MC CAMPBELL AIRPORT, TX US",1.19249E+12,1.74649E+12,6.67786E+11,2.53402E+14,Texas,United States,27.917,-97.2,5.2
WBAN:00366,"CLAXTON EVANS CO AIRPORT, GA US",1.23077E+12,1.74649E+12,39312000000,2.53402E+14,Georgia,United States,32.2,-81.87,34.1
WBAN:00367,"WARRENTON FAUQUIER AIRPORT, VA US",1.23077E+12,1.74649E+12,-1.76256E+11,2.53402E+14,Virginia,United States,38.586,-77.711,103
WBAN:00368,"WALHALLA MUNICIPAL AIRPORT, ND US",1.29004E+12,1.74649E+12,-6.73229E+11,2.53402E+14,North Dakota,United States,48.941,-97.903,290.2
WBAN:00369,"MCOLF CAMP PENDLETON RED BEACH AIRPORT, CA US",1.25677E+12,1.72161E+12,1.23587E+12,2.53402E+14,California,United States,33.286,-117.456,27.1
WBAN:00370,"PINEY ISLAND, NC US",1.40676E+12,1.74623E+12,-5.90115E+13,2.53402E+14,North Carolina,United States,35.02,-76.46,5.2
WBAN:00371,"SANTEE COOPER REGIONAL AIRPORT, SC US",1.23077E+12,1.74649E+12,-1.05235E+11,2.53402E+14,South Carolina,United States,33.587,-80.209,31.1
WBAN:00382,"TOCCOA RG LETOURNEAU FIELD AIRPORT, GA US",1.33903E+12,1.74649E+12,-9.38909E+11,2.53402E+14,Georgia,United States,34.594,-83.296,303.3
WBAN:00372,"UPPER CUMBERLAND REGIONAL AIRPORT, TN US",1.33877E+12,1.74649E+12,1.86624E+11,2.53402E+14,Tennessee,United States,36.056,-85.531,312.1
WBAN:00373,"HARRELL FIELD AIRPORT, AR US",1.17798E+12,1.74649E+12,-7.96867E+11,2.53402E+14,Arkansas,United States,33.617,-92.767,40.2
WBAN:00374,"PAYSON AIRPORT, AZ US",1.26351E+12,1.74649E+12,-1.78934E+11,2.53402E+14,Arizona,United States,34.257,-111.339,1572.2
WBAN:00375,"SEDONA AIRPORT, AZ US",1.23595E+12,1.74649E+12,-4.31395E+11,2.53402E+14,Arizona,United States,34.85,-111.783,1471.3
WBAN:00376,"MOUNT WERNER, CO US",1.11145E+12,1.4059E+12,1.11102E+12,2.53402E+14,Colorado,United States,40.46,-106.76,3241.2
WBAN:00377,"INVERNESS AIRPORT, FL US",1.25004E+12,1.74649E+12,-7.57382E+11,2.53402E+14,Florida,United States,28.817,-82.317,15.2
WBAN:00378,"CLEVELAND MUNICIPAL AIRPORT, TX US",1.40676E+12,1.74649E+12,-5270400000,2.53402E+14,Texas,United States,30.356,-95.008,46
WBAN:00379,"ALLENTOWN QUEEN CITY MUNICIPAL AIRPORT, PA US",1.40676E+12,1.74649E+12,-5.90115E+13,2.53402E+14,Pennsylvania,United States,40.567,-75.483,122.2
WBAN:00380,"PORTAGE CO AIRPORT, OH US",1.23733E+12,1.74649E+12,6.41174E+11,2.53402E+14,Ohio,United States,41.217,-81.25,365.2
WBAN:00381,"JENNINGS AIRPORT, LA US",1.40676E+12,1.74649E+12,-7.67923E+11,2.53402E+14,Louisiana,United States,30.243,-92.673,7
WBAN:00383,"ANSON CO AIRPORT JEFF CLOUD FIELD, NC US",1.17971E+12,1.74649E+12,-9.04781E+11,2.53402E+14,North Carolina,United States,35.017,-80.083,91.1
WBAN:00384,"MICHIGAN CITY MUNICIPAL AIRPORT PHILLIPS FIELD, IN US",1.32615E+12,1.74649E+12,-9.38909E+11,2.53402E+14,Indiana,United States,41.7033,-86.8212,200.3
WBAN:00385,"BALD MOUNTAIN COTTONWOOD PASS, CO US",1.11845E+12,1.74649E+12,1.1181E+12,2.53402E+14,Colorado,United States,38.783,-106.217,2995.3
WBAN:00386,"BLACK HILLS AIRPORT CLYDE ICE FIELD, SD US",1.11957E+12,1.74649E+12,-1.01511E+12,2.53402E+14,South Dakota,United States,44.483,-103.783,1198.2
WBAN:00387,"GRANT CO REGIONAL AIRPORT OGILVIE FIELD, OR US",1.10471E+12,1.74649E+12,-8.23219E+11,2.53402E+14,Oregon,United States,44.4,-118.967,1127.2
WBAN:00388,"JASPER CO AIRPORT, IN US",1.3055E+12,1.74649E+12,-9.04781E+11,2.53402E+14,Indiana,United States,40.94782,-87.18264,212.1
WBAN:00389,"MONROE CO AIRPORT, MS US",1.32615E+12,1.74649E+12,-2.63002E+11,2.53402E+14,Mississippi,United States,33.873,-88.49,69.2
WBAN:00390,"MOUNT PLEASANT REGIONAL AIRPORT FASION FIELD, SC US",1.23077E+12,1.74649E+12,5.2056E+11,2.53402E+14,South Carolina,United States,32.9,-79.783,4.3
WBAN:00393,"TELLER AIRPORT, AK US",1.23345E+12,1.74649E+12,1.73405E+11,2.53402E+14,Alaska,United States,65.233,-166.35,89
WBAN:00394,"JACKSON CO AIRPORT, GA US",1.31708E+12,1.7464E+12,-3.83962E+11,2.53402E+14,Georgia,United States,34.147,-83.561,290.2
WBAN:00395,"SOUTH CO AIRPORT OF SANTA CLARA CO, CA US",1.31743E+12,1.74649E+12,81475200000,2.53402E+14,California,United States,37.082,-121.597,86.3
WBAN:00396,"ROHNERVILLE AIRPORT, CA US",1.31656E+12,1.7464E+12,-7.23168E+11,2.53402E+14,California,United States,40.554,-124.133,119.2
WBAN:00397,"NEVADA CO AIR PARK, CA US",1.31656E+12,1.74649E+12,-9.10051E+11,2.53402E+14,California,United States,39.224,-121.003,961
WBAN:00399,"PRINCESS JULIANA INTERNATIONAL AIRPORT, NN",1.10454E+12,1.74649E+12,1.64074E+11,2.53402E+14,,Sint Maarten,18.04583,-63.11472,4.3
WBAN:00400,"F D ROOSEVELT AIRPORT, NL",1.10903E+12,1.74649E+12,1.64074E+11,2.53402E+14,,Netherlands,17.49833,-62.98028,40.2
WBAN:00401,"POINTE A PITRE INTERNATIONAL AIRPORT, FR",1.10454E+12,1.74649E+12,1.64074E+11,2.53402E+14,,France,16.267,-61.6,8.2
WBAN:00402,"MELVILLE HALL AIRPORT, DO",1.10454E+12,1.74649E+12,1.64074E+11,2.53402E+14,,Dominica,15.533,-61.3,14
WBAN:00403,"CANEFIELD AIRPORT, DO",1.10454E+12,1.7464E+12,1.64074E+11,2.53402E+14,,Dominica,15.333,-61.383,5.2
WBAN:00404,"MARTINIQUE AIME CESAIRE INTERNATIONAL AIRPORT, FR",1.10454E+12,1.74649E+12,1.64074E+11,2.53402E+14,,France,14.6,-61,7
WBAN:00405,"GEORGE F L CHARLES AIRPORT, ST",1.10454E+12,1.74649E+12,1.64074E+11,2.53402E+14,,St. Lucia,14.017,-61,2.1
WBAN:00406,"HEWANORRA INTERNATIONAL AIRPORT, ST",1.10454E+12,1.74649E+12,1.64074E+11,2.53402E+14,,St. Lucia,13.75,-60.95,10.1
WBAN:00407,"E T JOSHUA AIRPORT, VC",1.10454E+12,1.72437E+12,1.64074E+11,2.53402E+14,,St. Vincent & the Grenadines,13.133,-61.2,13.1
WBAN:00408,GRANTLEY ADAMS INTERNATIONAL AIRPORT,1.10454E+12,1.74649E+12,1.64074E+11,2.53402E+14,,,13.067,-59.483,52.1
WBAN:00409,MAURICE BISHOP INTERNATIONAL AIRPORT,1.10471E+12,1.74649E+12,4.85568E+11,2.53402E+14,,,12,-61.783,7
WBAN:00410,"ARTHUR NAPOLEON RAYMOND ROBINSON INTERNATIONAL AIRPORT, TD",1.10454E+12,1.74649E+12,5.67302E+11,2.53402E+14,,Trinidad & Tobago,11.15,-60.833,12.2
WBAN:00411,"QUEEN BEATRIX INTERNATIONAL AIRPORT, AA",1.10454E+12,1.74649E+12,1.64074E+11,2.53402E+14,,Aruba,12.5,-70.017,18.3
WBAN:00412,HATO INTERNATIONAL AIRPORT,1.10454E+12,1.74649E+12,1.64074E+11,2.53402E+14,,,12.2,-68.967,9.1
WBAN:00413,FLAMINGO INTERNATIONAL AIRPORT,1.10454E+12,1.74649E+12,1.64074E+11,2.53402E+14,,,12.15,-68.283,7
WBAN:00414,PEGASUS FIELD,1.10462E+12,1.48452E+12,9.76061E+11,2.53402E+14,,,-77.95,166.517,5.2
WBAN:00415,"KEYSTONE AIRPARK, FL US",1.29989E+12,1.74649E+12,-8.17862E+11,2.53402E+14,Florida,United States,29.84475,-82.04752,60
WBAN:00416,"LURAY CAVERNS AIRPORT, VA US",1.40676E+12,1.74649E+12,47174400000,2.53402E+14,Virginia,United States,38.66722,-78.50111,275.2
WBAN:00418,SOUTH PADRE ISLAND HELIPORT,1.27786E+12,1.4834E+12,1.27786E+12,2.53402E+14,,,26.067,-97.15,4.3
WBAN:00419,"BERTHOUD PASS, CO US",1.17539E+12,1.73802E+12,1.17487E+12,2.53402E+14,Colorado,United States,39.8,-105.766,4113.3
WBAN:00422,"WILKERSON PASS, CO US",1.11845E+12,1.74649E+12,1.1181E+12,2.53402E+14,Colorado,United States,39.05,-105.516,3438.1
WBAN:00423,"DE QUINCY INDUSTRIAL AIRPARK, LA US",1.40676E+12,1.74649E+12,-5.90115E+13,2.53402E+14,Louisiana,United States,30.44105,-93.47361,25.6
WBAN:00424,"SUNLIGHT, CO US",1.11845E+12,1.74649E+12,1.1181E+12,2.53402E+14,Colorado,United States,39.43333,-107.38333,3232.1
WBAN:00425,"MIDDLEBURY STATE AIRPORT, VT US",1.40676E+12,1.74649E+12,-5.44406E+11,2.53402E+14,Vermont,United States,43.98547,-73.09547,149
WBAN:00428,"DEXTER B FLORENCE MEMORIAL FIELD AIRPORT, AR US",1.36737E+12,1.74649E+12,-2.97216E+11,2.53402E+14,Arkansas,United States,34.0998,-93.066,55.8
WBAN:00429,"HOPKINS FIELD AIRPORT, CO US",1.35475E+12,1.74649E+12,-7.36387E+11,2.53402E+14,Colorado,United States,38.23875,-108.56327,1810.5
WBAN:00430,"TRI STATE STEUBEN CO AIRPORT, IN US",1.40676E+12,1.74649E+12,-9.38909E+11,2.53402E+14,Indiana,United States,41.63968,-85.08349,303.6
WBAN:00431,"HARRISON CO AIRPORT, TX US",1.30568E+12,1.74649E+12,-1.01511E+12,2.53402E+14,Texas,United States,32.5205,-94.3077,108.8
WBAN:00432,"GRAND ISLE SAWRS, LA US",1.10471E+12,1.47813E+12,5.36371E+11,2.53402E+14,Louisiana,United States,29.25,-89.966,2.1
WBAN:00433,"BRIDGEPORT SONORA JUNCTION, CA US",1.25133E+12,1.74649E+12,1.25133E+12,2.53402E+14,California,United States,38.3557,-119.519,2057.1
WBAN:00434,BRAZOS 133B,1.27319E+12,1.59564E+12,1.27319E+12,2.53402E+14,,,28.058,-95.872,0
WBAN:00435,BRAZOS 451 OILP,1.27414E+12,1.74649E+12,1.27414E+12,2.53402E+14,,,28.5,-95.716,34.1
WBAN:00437,"KYLE OAKLEY FIELD AIRPORT, KY US",1.28926E+12,1.74649E+12,-2.52461E+11,2.53402E+14,Kentucky,United States,36.66458,-88.37277,176.2
WBAN:00438,"COULTER FIELD AIRPORT, TX US",1.40676E+12,1.74649E+12,-8.73245E+11,2.53402E+14,Texas,United States,30.71569,-96.33136,112.2
WBAN:00439,"CRISP CO CORDELE AIRPORT, GA US",1.40676E+12,1.74338E+12,-8.46979E+11,2.53402E+14,Georgia,United States,31.98883,-83.77391,94.8
WBAN:00440,"CULLMAN REGIONAL AIRPORT FOLSOM FIELD, AL US",1.40676E+12,1.74649E+12,-3.49834E+11,2.53402E+14,Alabama,United States,34.26869,-85.85802,295.7
WBAN:00441,"DAVIESS CO AIRPORT, IN US",1.37748E+12,1.74649E+12,-1.57766E+11,2.53402E+14,Indiana,United States,38.70042,-87.12973,143.3
WBAN:00442,WEST DELTA 27A,1.27284E+12,1.70752E+12,1.27284E+12,2.53402E+14,,,29.11666,-89.55,36.3
WBAN:00444,"DIXON AIRPORT, WY US",1.37523E+12,1.74649E+12,2.99635E+11,2.53402E+14,Wyoming,United States,41.03744,-107.49252,1996.1
WBAN:00445,"DEMOPOLIS MUNICIPAL AIRPORT, AL US",1.40676E+12,1.74649E+12,-8.2849E+11,2.53402E+14,Alabama,United States,32.46383,-87.95405,34.1
WBAN:00446,"MONDELL FIELD AIRPORT, WY US",1.40676E+12,1.74649E+12,-9.80986E+11,2.53402E+14,Wyoming,United States,43.8854,-104.3179,1272.8
WBAN:00447,"ATHENS MUNICIPAL AIRPORT, TX US",1.40676E+12,1.63002E+12,-3.76013E+11,2.53402E+14,Texas,United States,32.16384,-95.82835,135.3
WBAN:00448,"RALPH M HALL ROCKWALL MUNICIPAL AIRPORT, TX US",1.34482E+12,1.74649E+12,-2.26195E+11,2.53402E+14,Texas,United States,32.93059,-96.43548,175.3
WBAN:00450,"FRONT RANGE AIRPORT, CO US",1.13357E+12,1.58034E+12,4.62845E+11,2.53402E+14,Colorado,United States,39.7842,-104.5376,1680.4
WBAN:00451,"BRANSON WEST MUNICIPAL EMERSON FIELD AIRPORT, MO US",1.40676E+12,1.74649E+12,1.25703E+12,2.53402E+14,Missouri,United States,36.6985,-93.4022,411.2
WBAN:00452,"IDAHO CO AIRPORT, ID US",1.30101E+12,1.74649E+12,-8.88883E+11,2.53402E+14,Idaho,United States,45.94255,-116.12341,1010.1
WBAN:00453,GREEN CANYON 338,1.29488E+12,1.74364E+12,1.29488E+12,2.53402E+14,,,27.63,-90.45,58.2
WBAN:00454,OFFSHORE,1.40685E+12,1.58276E+12,-5.90115E+13,2.53402E+14,,,28.18333,-88.48333,43.3
WBAN:00456,ALAMINOS CANYON,1.31414E+12,1.74649E+12,-5.90115E+13,2.53402E+14,,,26.93333,-94.68333,25.3
WBAN:00457,"FALSE RIVER REGIONAL AIRPORT, LA US",1.32443E+12,1.74649E+12,1.36598E+11,2.53402E+14,Louisiana,United States,30.7183,-91.4786,12.2
WBAN:00458,"CLERMONT CO AIRPORT, OH US",1.40676E+12,1.74649E+12,-23760000000,2.53402E+14,Ohio,United States,39.07838,-84.21022,256.9
WBAN:00459,MISS CANYON 474,1.40676E+12,1.74649E+12,-5.90115E+13,2.53402E+14,,,28.51666,-88.28333,25.3
WBAN:00460,"LOUISIANA REGIONAL AIRPORT, LA US",1.40676E+12,1.74649E+12,7.04678E+11,2.53402E+14,Louisiana,United States,30.17272,-90.94061,4.6
WBAN:00485,"FLAGLER CO EXECUTIVE AIRPORT, FL US",1.25721E+12,1.74649E+12,-7.70602E+11,2.53402E+14,Florida,United States,29.46738,-81.20633,10.1
WBAN:00461,"MEXIA LIMESTONE CO AIRPORT, TX US",1.37773E+12,1.74649E+12,2.07706E+11,2.53402E+14,Texas,United States,31.64117,-96.51445,166.1
WBAN:00462,"OCEAN CO AIRPORT, NJ US",1.195E+12,1.74649E+12,1.19241E+12,2.53402E+14,New Jersey,United States,39.9275,-74.2923,25
WBAN:00463,"MAURY CO AIRPORT, TN US",1.36279E+12,1.74649E+12,-2.26195E+11,2.53402E+14,Tennessee,United States,35.55438,-87.17913,207.9
WBAN:00464,"J DOUGLAS BAKE MEMORIAL AIRPORT, WI US",1.40676E+12,1.74649E+12,-6.89126E+11,2.53402E+14,Wisconsin,United States,44.87405,-87.90977,184.4
WBAN:00465,"CATTARAUGUS CO OLEAN AIRPORT, NY US",1.33514E+12,1.74649E+12,-3.52426E+11,2.53402E+14,New York,United States,42.24122,-78.37136,651.1
WBAN:00466,"ST LANDRY PARISH AIRPORT AHART FIELD, LA US",1.36745E+12,1.74649E+12,-7.02259E+11,2.53402E+14,Louisiana,United States,30.55838,-92.09938,23.2
WBAN:00467,"WILLIAM R POGUE MUNICIPAL AIRPORT, OK US",1.37713E+12,1.74649E+12,13046400000,2.53402E+14,Oklahoma,United States,36.17527,-96.15183,272.2
WBAN:00468,"CARL R KELLER FIELD AIRPORT, OH US",1.40676E+12,1.74649E+12,47174400000,2.53402E+14,Ohio,United States,41.51627,-82.86948,179.8
WBAN:00469,"PIERCE CO AIRPORT THUN FIELD, WA US",1.17539E+12,1.74649E+12,-7.67923E+11,2.53402E+14,Washington,United States,47.10391,-122.28719,164.3
WBAN:00470,"PLATTSMOUTH MUNICIPAL AIRPORT, NE US",1.16407E+12,1.74649E+12,1.1569E+11,2.53402E+14,Nebraska,United States,40.94836,-95.91735,367.3
WBAN:00471,"PRESIDIO LELY INTERNATIONAL AIRPORT, TX US",1.37523E+12,1.74649E+12,2.15654E+11,2.53402E+14,Texas,United States,29.63421,-104.36149,896.1
WBAN:00472,"KYRGYZSTAN US MIL BISHKEH MANAS, KG",1.59952E+12,1.60116E+12,9.65347E+11,2.53402E+14,,Kyrgyzstan,43.06666,74.46666,637
WBAN:00474,"CLEVELAND MUNICIPAL AIRPORT, MS US",1.36356E+12,1.74649E+12,-8.75837E+11,2.53402E+14,Mississippi,United States,33.86113,-90.75788,42.7
WBAN:00475,"SHIVELY FIELD AIRPORT, WY US",1.36745E+12,1.74649E+12,-7.47014E+11,2.53402E+14,Wyoming,United States,41.44352,-106.82752,2138.5
WBAN:00477,"ROGER M DREYER MEMORIAL AIRPORT, TX US",1.40676E+12,1.74649E+12,-4.4712E+11,2.53402E+14,Texas,United States,29.5291,-97.4643,108.2
WBAN:00479,"TEHACHAPI MUNICIPAL AIRPORT, CA US",1.26032E+12,1.74649E+12,-9.38909E+11,2.53402E+14,California,United States,35.1349,-118.4393,1219.5
WBAN:00480,"EAGLE RANGE WEATHER SERVICE OFFICE, UT US",1.40676E+12,1.74649E+12,-5.90115E+13,2.53402E+14,Utah,United States,41.05,-113.06,1292
WBAN:00481,"GRANITE PEAK FILLMORE AIRPORT, UT US",1.40668E+12,1.7185E+12,-5.90115E+13,2.53402E+14,Utah,United States,38.95813,-112.36313,1519.4
WBAN:00482,"VENICE MUNICIPAL AIRPORT, FL US",1.29669E+12,1.74649E+12,-8.04298E+11,2.53402E+14,Florida,United States,27.07161,-82.44033,5.8
WBAN:00483,"NEW ORLEANS SUPERDOME HELIPORT, LA US",1.40676E+12,1.4224E+12,-5.90115E+13,2.53402E+14,Louisiana,United States,29.95268,-90.08273,9.1
WBAN:00484,"HULETT MUNICIPAL AIRPORT, WY US",1.40676E+12,1.74649E+12,1.06237E+12,2.53402E+14,Wyoming,United States,44.66286,-104.56783,1300
WBAN:00486,"ZEPHYRHILLS MUNICIPAL AIRPORT, FL US",1.34482E+12,1.74649E+12,-8.54755E+11,2.53402E+14,Florida,United States,28.22813,-82.15592,27.4
WBAN:00487,"FUA AMOTU TONGA, TN",1.10454E+12,1.7464E+12,3.19853E+11,2.53402E+14,,Tonga,-21.23,-175.15,38.1
WBAN:00488,"WELLINGTON INTERNATIONAL, NZ",1.10454E+12,1.7464E+12,1.1181E+12,2.53402E+14,,New Zealand,-41.3,174.8,7
WBAN:00489,"BRYANT ARMY AIRFIELD HELIPORT, AK US",1.36598E+12,1.74649E+12,-5.90115E+13,2.53402E+14,Alaska,United States,61.2658,-149.6533,118.3
WBAN:00490,"SHUNGNAK AIRPORT, AK US",1.2604E+12,1.74649E+12,-1.10592E+11,2.53402E+14,Alaska,United States,66.88808,-157.16241,62.8
WBAN:00494,"FERNANDO LUIS RIBAS DOMINICCI AIRPORT, US",1.29842E+12,1.7464E+12,-7.04851E+11,2.53402E+14,,United States,18.45677,-66.09847,3
WBAN:00496,"MOORE MURRELL, TN US",1.65983E+12,1.74537E+12,1.66113E+12,2.53402E+14,Tennessee,United States,36.17927,-83.37545,399.9
WBAN:00497,"GATLINBURG PIGEON FORGE, TN US",1.65983E+12,1.74649E+12,1.66113E+12,2.53402E+14,Tennessee,United States,35.85775,-83.5287,309.1
WBAN:00476,"BIG SANDY REGIONAL AIRPORT, KY US",1.33842E+12,1.74649E+12,5.12698E+11,2.53402E+14,Kentucky,United States,37.75102,-82.63669,372.5
WBAN:00253,MISSISSIPPI CANYON 311 A,1.27284E+12,1.6302E+12,1.27284E+12,2.53402E+14,,,28.643,-89.794,224
WBAN:94197,"OMAK, WA US",1.10454E+12,1.74649E+12,1.63754E+12,2.53402E+14,Washington,United States,48.46113,-119.52091,397.4
WBAN:00109,"MANOKOTAK AIRPORT, AK US",1.12795E+12,1.7464E+12,49852800000,2.53402E+14,Alaska,United States,58.983,-159.05,15.8
WBAN:00116,"WASHINGTON REGIONAL AIRPORT, MO US",1.32875E+12,1.73854E+12,1.06065E+12,2.53402E+14,Missouri,United States,38.583,-91,149
WBAN:00302,VIOSCA KNOLL 768 OIL PLATFORM,1.29479E+12,1.74649E+12,1.29479E+12,2.53402E+14,,,29.233,-87.783,53
WBAN:26564,"IVOTUK 1 NNE, AK US",1.40305E+12,1.66951E+12,1.40314E+12,2.53402E+14,Alaska,United States,68.4851,-155.7506,581.9
WBAN:96406,"RUBY 44 ESE, AK US",1.40918E+12,1.74649E+12,1.40918E+12,2.53402E+14,Alaska,United States,64.5015,-154.1297,78.9
WBAN:26565,"DEADHORSE 3 S, AK US",1.40383E+12,1.74416E+12,1.404E+12,2.53402E+14,Alaska,United States,70.1618,-148.4644,9.1
WBAN:14966,"NORTHEAST IOWA REGIONAL AIRPORT, IA US",1.10454E+12,1.74649E+12,-7.28525E+11,2.53402E+14,Iowa,United States,43.072504,-92.610809,342.9
WBAN:96408,"DENALI 27 N, AK US",1.43994E+12,1.74649E+12,1.44003E+12,2.53402E+14,Alaska,United States,63.452,-150.8747,678.2
WBAN:03164,"CAMPO ASOS, CA US",1.10454E+12,1.60367E+12,1.52591E+12,1.60428E+12,California,United States,32.6261,-116.4681,805
WBAN:25382,"YAKUTAT 3 SSE, AK US",1.47226E+12,1.74649E+12,1.47632E+12,2.53402E+14,Alaska,United States,59.5087,-139.685,7.9
WBAN:54856,"WOOSTER 3 SSE, OH US",1.47874E+12,1.74649E+12,1.47882E+12,2.53402E+14,Ohio,United States,40.7641,-81.9104,335.9
WBAN:96405,"CORDOVA 14 ESE, AK US",1.50111E+12,1.74649E+12,1.50129E+12,2.53402E+14,Alaska,United States,60.4731,-145.3542,25.3
WBAN:92828,"CLEARWATER AIR PARK, FL US",1.5304E+12,1.74649E+12,-8.60026E+11,2.53402E+14,Florida,United States,27.977214,-82.759057,21.6
WBAN:26656,"BETHEL 87 WNW, AK US",1.53446E+12,1.74649E+12,1.53446E+12,2.53402E+14,Alaska,United States,61.3465,-164.0769,46.6
WBAN:54789,"POCONO MOUNTAINS MUNICIPAL AIRPORT, PA US",1.10454E+12,1.74649E+12,1.63754E+12,2.53402E+14,Pennsylvania,United States,41.13684,-75.3771,574.6
WBAN:94099,"WILLISTON AIRPORT, ND US",1.57516E+12,1.74649E+12,1.63754E+12,2.53402E+14,North Dakota,United States,48.25412,-103.7468,718
WBAN:23583,"ALEKNAGIK 1 NNE, AK US",1.57058E+12,1.74649E+12,1.57058E+12,2.53402E+14,Alaska,United States,59.284,-158.6145,24.4
WBAN:63904,"TAYLOR MUNICIPAL AIRPORT, TX US",1.57257E+12,1.74649E+12,-7.54704E+11,2.53402E+14,Texas,United States,30.57263,-97.44319,182.9
WBAN:54783,"ROCK SPRINGS, PA US",1.19915E+12,1.70139E+12,1.15698E+12,2.53402E+14,Pennsylvania,United States,40.71,-77.93,371.9
WBAN:00234,"CORNING MUNICIPAL AIRPORT, AR US",1.40685E+12,1.74649E+12,28857600000,2.53402E+14,Arkansas,United States,36.4,-90.65,89
WBAN:00279,"RENO STEAD AIRPORT, NV US",1.31656E+12,1.74649E+12,-8.3376E+11,2.53402E+14,Nevada,United States,39.667,-119.876,1540.2
WBAN:00285,"CANDO MUNICIPAL AIRPORT, ND US",1.29004E+12,1.74649E+12,-7.57382E+11,2.53402E+14,North Dakota,United States,48.48,-99.236,450.2
WBAN:00292,"MERCER CO REGIONAL AIRPORT, ND US",1.29004E+12,1.74649E+12,-5.57626E+11,2.53402E+14,North Dakota,United States,47.29,-101.581,553.2
WBAN:00339,"GRIFFIN SPALDING CO AIRPORT, GA US",1.32157E+12,1.74649E+12,-9.38909E+11,2.53402E+14,Georgia,United States,33.227,-84.275,292.3
WBAN:00345,"LORDSBURG MUNICIPAL AIRPORT, NM US",1.32926E+12,1.74649E+12,-9.80986E+11,2.53402E+14,New Mexico,United States,32.333,-108.691,1304.2
WBAN:00391,"GEORGETOWN CO AIRPORT, SC US",1.24191E+12,1.74649E+12,-8.07408E+11,2.53402E+14,South Carolina,United States,33.317,-79.317,12.2
WBAN:00398,"MERCEDITA AIRPORT, US",1.10454E+12,1.74649E+12,-6.86448E+11,2.53402E+14,,United States,18,-66.55,9.1
WBAN:00443,"DUBOIS MUNICIPAL AIRPORT, WY US",1.36849E+12,1.74649E+12,-3.89232E+11,2.53402E+14,Wyoming,United States,43.54836,-109.69025,2224.1
WBAN:00449,"FORT BRIDGER AIRPORT, WY US",1.37532E+12,1.74649E+12,-8.9951E+11,2.53402E+14,Wyoming,United States,41.39333,-110.40597,2145.5
WBAN:00455,"HANNIBAL REGIONAL AIRPORT, MO US",1.35294E+12,1.74649E+12,-9.38909E+11,2.53402E+14,Missouri,United States,39.72516,-91.44386,234.7
WBAN:00289,"TIOGA MUNICIPAL AIRPORT, ND US",1.29004E+12,1.74649E+12,-7.10208E+11,2.53402E+14,North Dakota,United States,48.381,-102.898,691
WBAN:96407,"SELAWIK 28 E, AK US",1.43942E+12,1.74649E+12,1.43951E+12,2.53402E+14,Alaska,United States,66.562,-159.0036,6.7
WBAN:96409,"TOOLIK LAKE 5 ENE, AK US",1.50336E+12,1.74649E+12,1.50336E+12,2.53402E+14,Alaska,United States,68.6483,-149.3986,750.1
WBAN:04908,"COUNCIL BLUFFS MUNICIPAL AIRPORT, IA US",1.10454E+12,1.74649E+12,7.20576E+11,2.53402E+14,Iowa,United States,41.25944,-95.75972,381.9
WBAN:04925,"FAIRFIELD MUNICIPAL AIRPORT, IA US",1.10454E+12,1.74649E+12,7.23168E+11,2.53402E+14,Iowa,United States,41.05306,-91.97889,243.5
WBAN:04947,"MOUNT PLEASANT MUNICIPAL AIRPORT, IA US",1.10454E+12,1.74649E+12,-5.90115E+13,2.53402E+14,Iowa,United States,40.94667,-91.51111,223.7
WBAN:94830,"TOLEDO EXPRESS AIRPORT, OH US",-4.70707E+11,1.74649E+12,8.17776E+11,2.53402E+14,Ohio,United States,41.58705,-83.80538,205.5
WBAN:24225,"MEDFORD INTERNATIONAL AIRPORT, OR US",-6.9431E+11,1.74649E+12,1.63754E+12,2.53402E+14,Oregon,United States,42.37503,-122.87702,400.3
WBAN:24162,"ONTARIO, OR US",-6.9431E+11,1.74649E+12,1.63754E+12,2.53402E+14,Oregon,United States,44.01423,-117.00808,666.8
WBAN:14778,"WILLIAMSPORT REGIONAL AIRPORT, PA US",-6.78586E+11,1.74649E+12,8.09914E+11,2.53402E+14,Pennsylvania,United States,41.24295,-76.92173,159.8
WBAN:14794,"WESTERLY STATE AIRPORT, RI US",1.10454E+12,1.74649E+12,1.63754E+12,2.53402E+14,Rhode Island,United States,41.35092,-71.80555,19.8
WBAN:13782,"DOWNTOWN CHARLESTON, SC US",1.10454E+12,1.7464E+12,1.50362E+12,2.53402E+14,South Carolina,United States,32.775,-79.9239,3
WBAN:94721,"KEENE DILLANT HOPKINS AIRPORT, NH US",1.10454E+12,1.74649E+12,-7.33795E+11,2.53402E+14,New Hampshire,United States,42.9,-72.26667,146.6
WBAN:94765,"LEBANON MUNICIPAL AIRPORT, NH US",-3.47155E+11,1.74649E+12,8.95018E+11,2.53402E+14,New Hampshire,United States,43.62707,-72.30537,168.9
WBAN:14706,"MCGUIRE AFB, NJ US",-8.65296E+11,1.74649E+12,1.89302E+11,2.53402E+14,New Jersey,United States,40.01667,-74.6,39.9
WBAN:14768,"FREDERICK DOUGLASS GREATER ROCHESTER INTERNATIONAL AIRPORT, NY US",-6.9431E+11,1.74649E+12,1.48323E+12,2.53402E+14,New York,United States,43.11723,-77.67539,164.5
WBAN:64776,"PLATTSBURGH INTERNATIONAL AIRPORT, NY US",1.18212E+12,1.74649E+12,1.63754E+12,2.53402E+14,New York,United States,44.63923,-73.46312,50.4
WBAN:94985,"MARSHFIELD MUNICIPAL AIRPORT, WI US",1.10454E+12,1.74649E+12,1.63754E+12,2.53402E+14,Wisconsin,United States,44.6379,-90.18755,381.5
WBAN:94973,"HAYWARD MUNICIPAL AIRPORT, WI US",1.10454E+12,1.74649E+12,1.63754E+12,2.53402E+14,Wisconsin,United States,46.03028,-91.44263,368.9
WBAN:53801,"LEWISBURG, WV US",1.10454E+12,1.74649E+12,20995200000,2.53402E+14,West Virginia,United States,37.86667,-80.4,701.6
WBAN:26444,"WHITTIER, AK US",1.11698E+12,1.73042E+12,-5.90115E+13,2.53402E+14,Alaska,United States,60.78333,-148.73333,11.9
WBAN:26409,"ANCHORAGE MERRILL FIELD, AK US",-7.88918E+11,1.74649E+12,1.63754E+12,2.53402E+14,Alaska,United States,61.2163,-149.85724,38.4
WBAN:26439,"SHEEP MOUNTAIN AIRPORT, AK US",-6.62688E+11,1.32011E+12,-1.1327E+11,2.53402E+14,Alaska,United States,61.81194,-147.50694,853.4
WBAN:26425,"GULKANA AIRPORT, AK US",-7.88918E+11,1.74649E+12,1.63754E+12,2.53402E+14,Alaska,United States,62.15914,-145.45885,481.1
WBAN:27502,"BARROW AIRPORT, AK US",-7.88918E+11,1.74649E+12,1.63754E+12,2.53402E+14,Alaska,United States,71.28703,-156.73938,8.1
WBAN:24022,"LARAMIE AIRPORT, WY US",-6.9431E+11,1.74649E+12,1.63754E+12,2.53402E+14,Wyoming,United States,41.3165,-105.67288,2216.8
WBAN:53954,"ROGERS MUNICIPAL CARTER FIELD AIRPORT, AR US",1.10454E+12,1.74649E+12,6.75562E+11,2.53402E+14,Arkansas,United States,36.37222,-94.10667,412.4
WBAN:53955,"SILOAM SPRINGS SMITH FIELD AIRPORT, AR US",1.10454E+12,1.74649E+12,6.75562E+11,2.53402E+14,Arkansas,United States,36.19056,-94.49083,363.6
WBAN:53128,"CHANDLER MUNICIPAL AIRPORT, AZ US",1.10454E+12,1.74649E+12,-5.90115E+13,2.53402E+14,Arizona,United States,33.26889,-111.81278,378.9
WBAN:53126,"GLENDALE MUNICIPAL AIRPORT, AZ US",1.10471E+12,1.74649E+12,-5.90115E+13,2.53402E+14,Arizona,United States,33.52722,-112.295,324.9
WBAN:03038,"RED CLIFF PASS, CO US",1.10454E+12,1.74649E+12,-5.90115E+13,2.53402E+14,Colorado,United States,39.46667,-106.15,3680.2
WBAN:03039,"WOLF CREEK PASS, CO US",1.10454E+12,1.74649E+12,-5.90115E+13,2.53402E+14,Colorado,United States,37.45,-106.8,3593.9
WBAN:03040,"MONUMENT PASS, CO US",1.10454E+12,1.74649E+12,-5.90115E+13,2.53402E+14,Colorado,United States,39.21667,-104.63333,2151.9
WBAN:03041,"MONARCH PASS, CO US",1.10454E+12,1.74649E+12,-5.90115E+13,2.53402E+14,Colorado,United States,38.48333,-106.31667,3667
WBAN:03042,"LA VETA PASS, CO US",1.10454E+12,1.74649E+12,-5.90115E+13,2.53402E+14,Colorado,United States,37.5,-105.16667,3114.1
WBAN:94076,"KREMMLING MCELROY AIRFIELD, CO US",1.10454E+12,1.74649E+12,1.06082E+12,2.53402E+14,Colorado,United States,40.05361,-106.36889,2258.9
WBAN:53894,"JACKSONVILLE HERLONG AIRPORT, FL US",1.12026E+12,1.12026E+12,-5.90115E+13,2.53402E+14,Florida,United States,30.27778,-81.80583,26.5
WBAN:92813,"ORLANDO KISSIMMEE MUNICIPAL AIRPORT, FL US",1.10454E+12,1.74649E+12,6.38755E+11,2.53402E+14,Florida,United States,28.28972,-81.43694,25
WBAN:92814,"ST AUGUSTINE AIRPORT, FL US",1.10454E+12,1.74649E+12,6.50246E+11,2.53402E+14,Florida,United States,29.95917,-81.33972,3
WBAN:92815,"STUART WITHAM FIELD AIRPORT, FL US",1.10566E+12,1.74649E+12,8.75664E+11,2.53402E+14,Florida,United States,27.18167,-80.22083,5.5
WBAN:92816,"TAMPA VANDENBERG AIRPORT, FL US",1.10454E+12,1.74649E+12,-5.90115E+13,2.53402E+14,Florida,United States,28.01389,-82.34528,6.7
WBAN:63823,"JACKSONVILLE CECIL FIELD AIRPORT, FL US",1.10462E+12,1.74649E+12,-5.90115E+13,2.53402E+14,Florida,United States,30.21861,-81.87639,24.7
WBAN:92817,"THE VILLAGES, FL US",1.10454E+12,1.51857E+12,-5.90115E+13,2.53402E+14,Florida,United States,28.95,-81.96667,27.1
WBAN:53882,"BAINBRIDGE DECATUR CO INDUSTRIAL AIR PARK AIRPORT, GA US",1.10454E+12,1.74649E+12,-5.90115E+13,2.53402E+14,Georgia,United States,30.98333,-84.63333,43
WBAN:53883,"BRUNSWICK GLYNCO JETPORT AIRPORT, GA US",1.10454E+12,1.74649E+12,9.072E+11,2.53402E+14,Georgia,United States,31.25889,-81.46611,7.9
WBAN:53884,"NEWNAN COWETA CO AIRPORT, GA US",1.10454E+12,1.74649E+12,-5.90115E+13,2.53402E+14,Georgia,United States,33.31194,-84.77028,295.7
WBAN:53885,"DALTON MUNICIPAL AIRPORT, GA US",1.10454E+12,1.74649E+12,6.3625E+11,2.53402E+14,Georgia,United States,34.72167,-84.86889,216.4
WBAN:53898,"WASHINGTON WILKES CO AIRPORT, GA US",1.16199E+12,1.74649E+12,-5.90115E+13,2.53402E+14,Georgia,United States,33.77972,-82.81639,196.6
WBAN:63803,"LAWRENCEVILLE GWINNET CO BRISCOE FIELD AIRPORT, GA US",1.10894E+12,1.74649E+12,6.78326E+11,2.53402E+14,Georgia,United States,33.97972,-83.96333,323.4
WBAN:63809,"THOMASTON UPSON CO AIRPORT, GA US",1.10454E+12,1.74649E+12,8.12506E+11,2.53402E+14,Georgia,United States,32.955,-84.26417,242.6
WBAN:63813,"MARIETTA COBB CO MCCOLLUM FIELD AIRPORT, GA US",1.1048E+12,1.74649E+12,6.53098E+11,2.53402E+14,Georgia,United States,34.01306,-84.59861,317
WBAN:63818,"STATESBORO BULLOCH CO AIRPORT, GA US",1.10454E+12,1.74649E+12,7.91597E+11,2.53402E+14,Georgia,United States,32.48306,-81.73722,57
WBAN:63822,"VIDALIA MUNICIPAL AIRPORT, GA US",1.10454E+12,1.74649E+12,-5.90115E+13,2.53402E+14,Georgia,United States,32.1925,-82.37194,83.5
WBAN:63834,"ELBERT CO AIRPORT PATZ FIELD, GA US",1.10454E+12,1.7464E+12,1.05278E+12,2.53402E+14,Georgia,United States,34.095,-82.81583,183.8
WBAN:63835,"EARLY CO AIRPORT BLAKELY, GA US",1.13607E+12,1.74649E+12,1.0533E+12,2.53402E+14,Georgia,United States,31.39694,-84.89528,65.2
WBAN:63836,"THOMSON MCDUFFIE CO AIRPORT, GA US",1.10454E+12,1.74649E+12,9.072E+11,2.53402E+14,Georgia,United States,33.52972,-82.51639,151.8
WBAN:63842,"DOUGLAS MUNICIPAL AIRPORT, GA US",1.10454E+12,1.74649E+12,1.07024E+12,2.53402E+14,Georgia,United States,31.47667,-82.86056,78.3
WBAN:04903,"WASHINGTON MUNICIPAL AIRPORT, IA US",1.10454E+12,1.74649E+12,7.23168E+11,2.53402E+14,Iowa,United States,41.27583,-91.67333,229.8
WBAN:04904,"ALGONA MUNICIPAL AIRPORT, IA US",1.10454E+12,1.74649E+12,7.20576E+11,2.53402E+14,Iowa,United States,43.07778,-94.27194,371.6
WBAN:04906,"BOONE MUNICIPAL AIRPORT, IA US",1.10454E+12,1.74649E+12,7.20576E+11,2.53402E+14,Iowa,United States,42.04944,-93.8475,353.6
WBAN:04907,"CLARION MUNICIPAL AIRPORT, IA US",1.10454E+12,1.74649E+12,7.20576E+11,2.53402E+14,Iowa,United States,42.74167,-93.75889,354.2
WBAN:04910,"CARROLL ARTHUR N NEU AIRPORT, IA US",1.10454E+12,1.74649E+12,7.20576E+11,2.53402E+14,Iowa,United States,42.04611,-94.78889,367
WBAN:04913,"CHARITON MUNICIPAL AIRPORT, IA US",1.10454E+12,1.74649E+12,7.20576E+11,2.53402E+14,Iowa,United States,41.01944,-93.35944,320
WBAN:04915,"CRESTON MUNICIPAL AIRPORT, IA US",1.10454E+12,1.74649E+12,6.6001E+11,2.53402E+14,Iowa,United States,41.00722,-94.36306,394.4
WBAN:04916,"DECORAH MUNICIPAL AIRPORT, IA US",1.10454E+12,1.74649E+12,7.23168E+11,2.53402E+14,Iowa,United States,43.27528,-91.73917,352.7
WBAN:04920,"WEBSTER CITY MUNICIPAL AIRPORT, IA US",1.10454E+12,1.74649E+12,7.17898E+11,2.53402E+14,Iowa,United States,42.43639,-93.86861,341.7
WBAN:04930,"FORT MADISON MUNICIPAL AIRPORT, IA US",1.10454E+12,1.74649E+12,7.23168E+11,2.53402E+14,Iowa,United States,40.65917,-91.32667,220.7
WBAN:04936,"HARLAN MUNICIPAL AIRPORT, IA US",1.10454E+12,1.74649E+12,9.41414E+11,2.53402E+14,Iowa,United States,41.58417,-95.33944,375.2
WBAN:04937,"CLARINDA SCHENCK FIELD AIRPORT, IA US",1.10454E+12,1.74649E+12,7.23168E+11,2.53402E+14,Iowa,United States,40.72167,-95.02639,302.4
WBAN:04938,"ANKENY REGIONAL AIRPORT, IA US",1.10454E+12,1.74649E+12,7.94016E+11,2.53402E+14,Iowa,United States,41.69111,-93.56611,277.4
WBAN:04942,"LE MARS MUNICIPAL AIRPORT, IA US",1.10454E+12,1.74649E+12,7.83648E+11,2.53402E+14,Iowa,United States,42.77778,-96.19361,364.5
WBAN:04953,"MONTICELLO MUNICIPAL AIRPORT, IA US",1.10454E+12,1.74649E+12,7.23168E+11,2.53402E+14,Iowa,United States,42.22389,-91.16556,258.8
WBAN:04955,"OELWEIN MUNICIPAL AIRPORT, IA US",1.10454E+12,1.74649E+12,7.23168E+11,2.53402E+14,Iowa,United States,42.68083,-91.97444,328
WBAN:13902,"ALTUS AFB, OK US",-8.49398E+11,1.74649E+12,-5.15462E+11,2.53402E+14,Oklahoma,United States,34.65,-99.26667,421.2
WBAN:93950,"MCALESTER REGIONAL AIRPORT, OK US",-5.20819E+11,1.74649E+12,1.63754E+12,2.53402E+14,Oklahoma,United States,34.88237,-95.78154,229.6
WBAN:93986,"HOBART MUNICIPAL AIRPORT, OK US",-6.75389E+11,1.74649E+12,1.63754E+12,2.53402E+14,Oklahoma,United States,34.98908,-99.05282,473.3
WBAN:03948,"NORMAN UNIVERSITY OF OKLAHOMA WESTHEIMER AIRPORT, OK US",1.10652E+12,1.74649E+12,1.2623E+11,2.53402E+14,Oklahoma,United States,35.25,-97.46667,360.3
WBAN:03932,"CLINTON SHERMAN AIRPORT, OK US",1.10454E+12,1.74649E+12,1.63754E+12,2.53402E+14,Oklahoma,United States,35.35677,-99.20411,584.7
WBAN:93911,"SHAWNEE MUNICIPAL AIRPORT, OK US",1.10454E+12,1.74649E+12,1.08337E+12,2.53402E+14,Oklahoma,United States,35.35667,-96.94333,327.1
WBAN:93953,"MUSKOGEE DAVIS FIELD, OK US",1.10454E+12,1.7464E+12,1.63754E+12,2.53402E+14,Oklahoma,United States,35.65765,-95.36583,183.4
WBAN:53908,"TULSA RICHARD L JONES JR AIRPORT, OK US",1.10454E+12,1.74649E+12,1.63754E+12,2.53402E+14,Oklahoma,United States,36.04243,-95.99016,189.1
WBAN:13968,"TULSA INTERNATIONAL AIRPORT, OK US",-7.25846E+11,1.74649E+12,1.63754E+12,2.53402E+14,Oklahoma,United States,36.19854,-95.87825,194.9
WBAN:03965,"STILLWATER REGIONAL AIRPORT, OK US",1.10454E+12,1.74649E+12,1.63754E+12,2.53402E+14,Oklahoma,United States,36.16238,-97.08931,292.8
WBAN:13975,"GAGE AIRPORT, OK US",-7.39066E+11,1.74649E+12,1.63754E+12,2.53402E+14,Oklahoma,United States,36.29659,-99.76865,665.9
WBAN:13909,"ENID VANCE AFB, OK US",1.1092E+12,1.74649E+12,6.65366E+11,2.53402E+14,Oklahoma,United States,36.33333,-97.91667,398.1
WBAN:53986,"ENID WOODRING AIRPORT, OK US",1.11534E+12,1.74649E+12,1.11439E+12,2.53402E+14,Oklahoma,United States,36.38333,-97.8,355.7
WBAN:13969,"PONCA CITY MUNICIPAL AIRPORT, OK US",-7.39066E+11,1.74649E+12,1.63754E+12,2.53402E+14,Oklahoma,United States,36.73689,-97.10234,304.3
WBAN:03959,"BARTLESVILLE MUNICIPAL AIRPORT, OK US",1.1092E+12,1.74649E+12,1.63754E+12,2.53402E+14,Oklahoma,United States,36.7664,-96.01292,210.4
WBAN:03977,"ELK CITY MUNICIPAL AIRPORT, OK US",1.40141E+12,1.74649E+12,6.75734E+11,2.53402E+14,Oklahoma,United States,35.43333,-99.4,610.2
WBAN:93812,"CINCINNATI MUNICIPAL AIRPORT LUNKEN FIELD, OH US",94694400000,1.74649E+12,8.7143E+11,2.53402E+14,Ohio,United States,39.106,-84.41609,144.8
WBAN:53855,"HAMILTON BUTLER CO REGIONAL AIRPORT, OH US",1.10454E+12,1.74649E+12,1.63754E+12,2.53402E+14,Ohio,United States,39.36119,-84.52063,184.7
WBAN:53859,"DAYTON WRIGHT BROTHERS AIRPORT, OH US",1.10454E+12,1.74649E+12,1.63754E+12,2.53402E+14,Ohio,United States,39.5918,-84.2263,290.4
WBAN:13812,"COLUMBUS RICKENBACKER, OH US",-8.65296E+11,1.74649E+12,-8.67974E+11,2.53402E+14,Ohio,United States,39.81667,-82.93333,226.8
WBAN:13840,"DAYTON WRIGHT PATTERSON AFB, OH US",-1.06255E+12,1.74649E+12,1.41869E+11,2.53402E+14,Ohio,United States,39.83333,-84.05,249.9
WBAN:93815,"DAYTON INTERNATIONAL AIRPORT, OH US",-6.9431E+11,1.74649E+12,9.71136E+11,2.53402E+14,Ohio,United States,39.90638,-84.21853,302.6
WBAN:63825,"COLUMBUS BOLTON FIELD, OH US",1.10454E+12,1.74649E+12,49852800000,2.53402E+14,Ohio,United States,39.9,-83.13333,275.8
WBAN:93824,"ZANESVILLE MUNICIPAL AIRPORT, OH US",-6.65366E+11,1.74649E+12,9.68803E+11,2.53402E+14,Ohio,United States,39.94609,-81.89315,268.6
WBAN:14821,"JOHN GLENN INTERNATIONAL AIRPORT, OH US",-7.81142E+11,1.74649E+12,1.4612E+12,2.53402E+14,Ohio,United States,39.99068,-82.87703,246.8
WBAN:04804,"COLUMBUS OHIO STATE UNIVERSITY AIRPORT, OH US",1.10454E+12,1.74649E+12,1.63754E+12,2.53402E+14,Ohio,United States,40.078406,-83.078332,275
WBAN:04852,"NEW PHILADELPHIA CLEVER FIELD, OH US",1.10454E+12,1.74649E+12,1.63754E+12,2.53402E+14,Ohio,United States,40.47031,-81.42176,271.7
WBAN:04855,"MARION MUNICIPAL AIRPORT, OH US",1.10454E+12,1.74649E+12,1.63754E+12,2.53402E+14,Ohio,United States,40.61576,-83.06731,300.3
WBAN:04850,"LIMA ALLEN CO AIRPORT, OH US",1.10454E+12,1.74649E+12,1.63754E+12,2.53402E+14,Ohio,United States,40.70806,-84.0214,293
WBAN:14891,"MANSFIELD LAHM REGIONAL AIRPORT, OH US",-6.65366E+11,1.74649E+12,8.23133E+11,2.53402E+14,Ohio,United States,40.8204,-82.51769,392.8
WBAN:14895,"AKRON CANTON AIRPORT, OH US",-6.78586E+11,1.74649E+12,8.09914E+11,2.53402E+14,Ohio,United States,40.91811,-81.44342,368.8
WBAN:14825,"FINDLAY AIRPORT, OH US",-6.65366E+11,1.74649E+12,1.63754E+12,2.53402E+14,Ohio,United States,41.01369,-83.66814,246.5
WBAN:14813,"AKRON FULTON INTERNATIONAL AIRPORT, OH US",-6.9431E+11,1.74649E+12,1.63754E+12,2.53402E+14,Ohio,United States,41.03732,-81.46341,318.1
WBAN:14820,"CLEVELAND HOPKINS INTERNATIONAL AIRPORT, OH US",-6.9431E+11,1.74649E+12,8.17776E+11,2.53402E+14,Ohio,United States,41.40568,-81.85191,236.8
WBAN:04853,"CLEVELAND BURKE LAKEFRONT AIRPORT, OH US",1.10454E+12,1.74649E+12,1.63754E+12,2.53402E+14,Ohio,United States,41.52568,-81.66908,177.5
WBAN:04805,"CLEVELAND CUYAHOGA CO AIRPORT, OH US",1.1105E+12,1.74649E+12,7.25846E+11,2.53402E+14,Ohio,United States,41.56667,-81.48333,267.9
WBAN:04848,"TOLEDO EXECUTIVE AIRPORT, OH US",1.10454E+12,1.74649E+12,8.82317E+11,2.53402E+14,Ohio,United States,41.56327,-83.47671,189
WBAN:04809,"WILLOUGHBY, OH US",1.59641E+12,1.7464E+12,36633600000,2.53402E+14,Ohio,United States,41.68333,-81.4,198.1
WBAN:04857,"ASHTABULA CO AIRPORT, OH US",1.10454E+12,1.74649E+12,1.63754E+12,2.53402E+14,Ohio,United States,41.7794,-80.69683,278.3
WBAN:94236,"KLAMATH FALLS INTERNATIONAL AIRPORT, OR US",-3.2616E+11,1.74649E+12,1.63754E+12,2.53402E+14,Oregon,United States,42.14702,-121.72553,1244.4
WBAN:94285,"LAKEVIEW LAKE CO AIRPORT, OR US",1.10454E+12,1.74649E+12,6.75734E+11,2.53402E+14,Oregon,United States,42.16667,-120.4,1441.1
WBAN:14737,"ALLENTOWN LEHIGH VALLEY INTERNATIONAL AIRPORT, PA US",-6.9431E+11,1.74649E+12,8.15184E+11,2.53402E+14,Pennsylvania,United States,40.64984,-75.44773,117.4
WBAN:94107,"ROME STATE AIRPORT, OR US",-6.38928E+11,1.74649E+12,8.90179E+11,2.53402E+14,Oregon,United States,42.590187,-117.864564,1236
WBAN:24235,"SEXTON SUMMIT, OR US",-6.9431E+11,1.74649E+12,7.25846E+11,2.53402E+14,Oregon,United States,42.6,-123.3667,1170.7
WBAN:24231,"ROSEBURG REGIONAL AIRPORT, OR US",-6.9431E+11,1.74649E+12,1.63754E+12,2.53402E+14,Oregon,United States,43.23367,-123.35775,152.9
WBAN:24284,"NORTH BEND SOUTHWEST OREGON REGIONAL AIRPORT, OR US",-6.5232E+11,1.74649E+12,1.27241E+12,2.53402E+14,Oregon,United States,43.41333,-124.24361,5.1
WBAN:94185,"BURNS MUNICIPAL AIRPORT, OR US",94694400000,1.74649E+12,1.63754E+12,2.53402E+14,Oregon,United States,43.59486,-118.95788,1262.8
WBAN:24221,"EUGENE MAHLON SWEET FIELD, OR US",-6.9431E+11,1.74649E+12,1.63754E+12,2.53402E+14,Oregon,United States,44.13311,-123.21563,109
WBAN:24230,"REDMOND AIRPORT, OR US",-8.83613E+11,1.74649E+12,1.63754E+12,2.53402E+14,Oregon,United States,44.2558,-121.1407,929.2
WBAN:24202,"CORVALLIS, OR US",1.10454E+12,1.74649E+12,-8.44301E+11,2.53402E+14,Oregon,United States,44.5,-123.28333,76.2
WBAN:24130,"BAKER CITY AIRPORT, OR US",-6.9431E+11,1.74649E+12,1.63754E+12,2.53402E+14,Oregon,United States,44.84301,-117.80987,1025
WBAN:24232,"SALEM AIRPORT MCNARY FIELD, OR US",-6.9431E+11,1.74649E+12,1.63754E+12,2.53402E+14,Oregon,United States,44.90488,-123.00103,63.4
WBAN:94273,"MCMINNVILLE MUNICIPAL AIRPORT, OR US",1.10454E+12,1.74649E+12,1.63754E+12,2.53402E+14,Oregon,United States,45.19572,-123.13381,48.2
WBAN:24148,"LA GRANDE MUNICIPAL AIRPORT, OR US",-6.62688E+11,1.74649E+12,5.39914E+11,2.53402E+14,Oregon,United States,45.28333,-118,826.9
WBAN:94281,"AURORA STATE AIRPORT, OR US",1.10454E+12,1.74649E+12,1.63754E+12,2.53402E+14,Oregon,United States,45.24656,-122.77095,59.6
WBAN:24152,"MEACHAM, OR US",-6.9431E+11,1.74649E+12,8.94499E+11,2.53402E+14,Oregon,United States,45.511788,-118.424647,1137
WBAN:94261,"PORTLAND HILLSBORO AIRPORT, OR US",1.10454E+12,1.7464E+12,1.63754E+12,2.53402E+14,Oregon,United States,45.54762,-122.95572,59.8
WBAN:24229,"PORTLAND INTERNATIONAL AIRPORT, OR US",-1.06255E+12,1.74649E+12,1.63754E+12,2.53402E+14,Oregon,United States,45.59578,-122.60919,6.7
WBAN:24155,"PENDLETON E OR REGIONAL AIRPORT, OR US",-1.00984E+12,1.74649E+12,1.63754E+12,2.53402E+14,Oregon,United States,45.6975,-118.83446,452.5
WBAN:94204,"CASCADE LOCKS, WA US",1.10929E+12,1.3805E+12,-5.60218E+11,2.53402E+14,Washington,United States,45.68333,-121.88333,46
WBAN:94224,"ASTORIA AIRPORT PORT OF, OR US",-6.54912E+11,1.74649E+12,1.63754E+12,2.53402E+14,Oregon,United States,46.15694,-123.88326,3.4
WBAN:94196,"JOHN DAY AIRPORT, OR US",1.10471E+12,1.16415E+12,6.39101E+11,2.53402E+14,Oregon,United States,44.40389,-118.96333,1125
WBAN:93778,"YORK AIRPORT, PA US",1.10454E+12,1.74649E+12,1.63754E+12,2.53402E+14,Pennsylvania,United States,39.91942,-76.87685,141.4
WBAN:94732,"NORTHEAST PHILADELPHIA AIRPORT, PA US",-6.62688E+11,1.74649E+12,7.88918E+11,2.53402E+14,Pennsylvania,United States,40.07892,-75.01336,32.9
WBAN:64752,"WINGS FIELD, PA US",1.10454E+12,1.74649E+12,1.36598E+11,2.53402E+14,Pennsylvania,United States,40.1,-75.26667,92
WBAN:54737,"LANCASTER AIRPORT, PA US",1.10454E+12,1.74649E+12,1.63754E+12,2.53402E+14,Pennsylvania,United States,40.12061,-76.29446,121.1
WBAN:14793,"WILLOW GROVE NAS, PA US",-7.8624E+11,1.30257E+12,-8.20541E+11,1.30248E+12,Pennsylvania,United States,40.2,-75.15,110
WBAN:14711,"MIDDLETOWN HARRISBURG INTERNATIONAL AIRPORT, PA US",-1.10186E+12,1.74649E+12,9.75629E+11,2.53402E+14,Pennsylvania,United States,40.1962,-76.77249,91.1
WBAN:14751,"HARRISBURG CAPITAL CITY AIRPORT, PA US",-6.9431E+11,1.74649E+12,1.63754E+12,2.53402E+14,Pennsylvania,United States,40.21843,-76.85521,102.1
WBAN:14736,"ALTOONA BLAIR CO AIRPORT, PA US",-6.6001E+11,1.74649E+12,1.63754E+12,2.53402E+14,Pennsylvania,United States,40.29993,-78.3168,446.6
WBAN:04726,"JOHNSTOWN CAMBRIA CO AIRPORT, PA US",-6.71069E+11,1.74649E+12,9.67594E+11,2.53402E+14,Pennsylvania,United States,40.31488,-78.83075,693.9
WBAN:54735,"LATROBE, PA US",1.10462E+12,1.74649E+12,-5270400000,2.53402E+14,Pennsylvania,United States,40.28333,-79.4,365.5
WBAN:14712,"READING REGIONAL AIRPORT, PA US",-8.38426E+11,1.74649E+12,9.1921E+11,2.53402E+14,Pennsylvania,United States,40.37342,-75.95924,101.3
WBAN:14762,"PITTSBURGH ALLEGHENY CO AIRPORT, PA US",-7.88918E+11,1.74649E+12,1.63754E+12,2.53402E+14,Pennsylvania,United States,40.3551,-79.92145,379.2
WBAN:54723,"MUIR ARMY AIR FIELD, PA US",1.1092E+12,1.74649E+12,2.70778E+11,2.53402E+14,Pennsylvania,United States,40.43333,-76.56667,148.7
WBAN:94823,"PITTSBURGH INTERNATIONAL AIRPORT, PA US",-7.8624E+11,1.74649E+12,8.36179E+11,2.53402E+14,Pennsylvania,United States,40.48459,-80.21448,341
WBAN:64706,"INDIANA J STEWART, PA US",1.10454E+12,1.74649E+12,-1.22567E+12,2.53402E+14,Pennsylvania,United States,40.63333,-79.1,428.2
WBAN:04813,"BEAVER FALLS, PA US",1.10929E+12,1.74649E+12,4.83754E+11,2.53402E+14,Pennsylvania,United States,40.76667,-80.4,390.8
WBAN:54739,"UNIVERSITY PARK, PA US",1.10454E+12,1.74649E+12,70934400000,2.53402E+14,Pennsylvania,United States,40.85,-77.85,377.6
WBAN:14761,"PHILIPSBURG MID STATE AIRPORT, PA US",-6.9431E+11,5.25485E+11,5.25398E+11,2.53402E+14,Pennsylvania,United States,40.9,-78.08333,591.9
WBAN:03841,"OAK RIDGE ATDD, TN US",1.10462E+12,1.45627E+12,1.56254E+12,2.53402E+14,Tennessee,United States,35.998,-84.2192,310.6
WBAN:04787,"DUBOIS REGIONAL AIRPORT, PA US",94694400000,1.74649E+12,1.63754E+12,2.53402E+14,Pennsylvania,United States,41.17947,-78.89326,550.4
WBAN:14777,"WILKES BARRE SCRANTON INTERNATIONAL AIRPORT, PA US",-6.62688E+11,1.74649E+12,8.28317E+11,2.53402E+14,Pennsylvania,United States,41.33349,-75.72273,289.9
WBAN:94868,"FRANKLIN, PA US",-63158400000,1.74649E+12,-6.41693E+11,2.53402E+14,Pennsylvania,United States,41.38333,-79.86667,469.4
WBAN:14860,"ERIE INTERNATIONAL AIRPORT, PA US",-6.9431E+11,1.74649E+12,8.12506E+11,2.53402E+14,Pennsylvania,United States,42.08026,-80.18236,222.2
WBAN:93762,"FOUNTAIN DALE SITE R HELIPAD, PA US",1.14644E+12,1.51053E+12,-3.12682E+11,2.53402E+14,Pennsylvania,United States,39.73333,-77.43333,249.3
WBAN:04827,"WASHINGTON CO AIRPORT, PA US",1.10454E+12,1.74649E+12,6.75734E+11,2.53402E+14,Pennsylvania,United States,40.13333,-80.28333,361.2
WBAN:94793,"BLOCK ISLAND STATE AIRPORT, RI US",6.31152E+11,1.74649E+12,8.49398E+11,2.53402E+14,Rhode Island,United States,41.16806,-71.57778,32
WBAN:14787,"NEWPORT STATE AIRPORT, RI US",1.10454E+12,1.74649E+12,1.63754E+12,2.53402E+14,Rhode Island,United States,41.52991,-71.28331,45.1
WBAN:14765,"RHODE ISLAND T.F. GREEN INTERNATIONAL AIRPORT, RI US",-8.65296E+11,1.74649E+12,8.09914E+11,2.53402E+14,Rhode Island,United States,41.72252,-71.43248,15.4
WBAN:54752,"NORTH KINGSTOWN QUONSET STATE AIRPORT, RI US",1.12432E+12,1.74649E+12,4.70707E+11,2.53402E+14,Rhode Island,United States,41.59713,-71.41213,5.8
WBAN:63837,"HILTON HEAD ISLAND AIRPORT, SC US",1.13607E+12,1.74649E+12,3.9623E+11,2.53402E+14,South Carolina,United States,32.21667,-80.7,7.3
WBAN:93831,"BEAUFORT MCAS, SC US",-7.81142E+11,1.74649E+12,-2.52461E+11,2.53402E+14,South Carolina,United States,32.48333,-80.71667,11.3
WBAN:13880,"CHARLESTON INTL. AIRPORT, SC US",-7.88918E+11,1.74649E+12,8.12506E+11,2.53402E+14,South Carolina,United States,32.89945,-80.0407,11.8
WBAN:13717,"MYRTLE BEACH AFB, SC US",-8.57347E+11,1.74649E+12,-8.62618E+11,2.53402E+14,South Carolina,United States,33.68333,-78.93333,7.6
WBAN:93718,"NORTH MYRTLE BEACH, SC US",-6.62688E+11,1.74649E+12,9.29491E+11,2.53402E+14,South Carolina,United States,33.81618,-78.72043,8.8
WBAN:13849,"SUMTER SHAW AFB, SC US",-8.84477E+11,1.74649E+12,1.89302E+11,2.53402E+14,South Carolina,United States,33.96667,-80.46667,73.5
WBAN:03858,"EASTOVER MCENTIRE ANG, SC US",-3.44045E+11,1.74649E+12,1.89302E+11,2.53402E+14,South Carolina,United States,33.96667,-80.8,77.4
WBAN:13883,"COLUMBIA METROPOLITAN AIRPORT, SC US",-8.7385E+11,1.74649E+12,8.17776E+11,2.53402E+14,South Carolina,United States,33.94225,-81.11802,68.3
WBAN:13744,"FLORENCE REGIONAL AIRPORT, SC US",-6.9431E+11,1.74649E+12,9.24826E+11,2.53402E+14,South Carolina,United States,34.18773,-79.73079,43
WBAN:53874,"GREENWOOD CO AIRPORT, SC US",1.10454E+12,1.74649E+12,1.63754E+12,2.53402E+14,South Carolina,United States,34.25394,-82.15265,188.2
WBAN:93846,"ANDERSON REGIONAL AIRPORT, SC US",-6.62688E+11,1.74649E+12,9.10138E+11,2.53402E+14,South Carolina,United States,34.498,-82.70924,233.7
WBAN:93804,"SPARTANBURG, SC US",-6.9431E+11,1.74649E+12,-2.26195E+11,2.53402E+14,South Carolina,United States,34.91667,-81.95,244.1
WBAN:03870,"GRNVL SPART INTERNATIONAL AIRPORT, SC US",-2.27664E+11,1.74649E+12,1.57524E+12,2.53402E+14,South Carolina,United States,34.90614,-82.21253,294.4
WBAN:94911,"YANKTON 2 E, SD US",1.10454E+12,1.74649E+12,1.0165E+12,2.53402E+14,South Dakota,United States,42.87856,-97.36361,357.2
WBAN:14944,"SIOUX FALLS FOSS FIELD, SD US",-8.60026E+11,1.74649E+12,1.63754E+12,2.53402E+14,South Dakota,United States,43.57751,-96.75387,432.4
WBAN:94950,"MITCHELL AIRPORT, SD US",1.10454E+12,1.74649E+12,1.63754E+12,2.53402E+14,South Dakota,United States,43.77425,-98.03838,396.4
WBAN:94943,"CHAMBERLAIN MUNICIPAL AIRPORT, SD US",1.10454E+12,1.74649E+12,8.86637E+11,2.53402E+14,South Dakota,United States,43.76667,-99.31833,519.1
WBAN:24024,"PHILIP AIRPORT, SD US",-6.9431E+11,1.74649E+12,1.63754E+12,2.53402E+14,South Dakota,United States,44.05099,-101.60138,672.7
WBAN:24090,"RAPID CITY REGIONAL AIRPORT, SD US",-6.04886E+11,1.74649E+12,1.63754E+12,2.53402E+14,South Dakota,United States,44.04582,-103.05442,963.8
WBAN:24006,"ELLSWORTH AFB, SD US",-9.75629E+11,1.74649E+12,-9.75629E+11,2.53402E+14,South Dakota,United States,44.15,-103.1,999.1
WBAN:94902,"BROOKINGS, SD US",1.10454E+12,1.74649E+12,-1.19923E+12,2.53402E+14,South Dakota,United States,44.3,-96.8,502.3
WBAN:14936,"HURON REGIONAL AIRPORT, SD US",-9.46771E+11,1.74649E+12,1.63754E+12,2.53402E+14,South Dakota,United States,44.37916,-98.22275,390.7
WBAN:24025,"PIERRE REGIONAL AIRPORT, SD US",-8.15357E+11,1.74649E+12,1.63754E+12,2.53402E+14,South Dakota,United States,44.38191,-100.28641,523.9
WBAN:14946,"WATERTOWN REGIONAL AIRPORT, SD US",-6.9431E+11,1.74649E+12,1.63754E+12,2.53402E+14,South Dakota,United States,44.90452,-97.14957,530.6
WBAN:14929,"ABERDEEN REGIONAL AIRPORT, SD US",-6.9431E+11,1.74649E+12,1.63754E+12,2.53402E+14,South Dakota,United States,45.44358,-98.41384,395.6
WBAN:94032,"CUSTER CO AIRPORT, SD US",1.10454E+12,1.74649E+12,1.63754E+12,2.53402E+14,South Dakota,United States,43.7331,-103.61513,1695.8
WBAN:94037,"BUFFALO ASOS, SD US",9.15149E+11,1.74649E+12,8.92685E+11,2.53402E+14,South Dakota,United States,45.604294,-103.546996,922
WBAN:94039,"PINE RIDGE AIRPORT, SD US",1.10454E+12,1.74649E+12,1.63754E+12,2.53402E+14,South Dakota,United States,43.02614,-102.52001,1002
WBAN:13882,"CHATTANOOGA AIRPORT, TN US",-6.9431E+11,1.74649E+12,1.63754E+12,2.53402E+14,Tennessee,United States,35.03363,-85.20039,204
WBAN:13893,"MEMPHIS INTERNATIONAL AIRPORT, TN US",-7.33795E+11,1.74649E+12,1.63754E+12,2.53402E+14,Tennessee,United States,35.05639,-89.9864,76.6
WBAN:03811,"JACKSON MCKELLAR SIPES AIRPORT, TN US",-6.62688E+11,1.74649E+12,1.63754E+12,2.53402E+14,Tennessee,United States,35.59332,-88.91696,129.2
WBAN:13891,"KNOXVILLE AIRPORT, TN US",-6.9431E+11,1.74649E+12,1.63754E+12,2.53402E+14,Tennessee,United States,35.81801,-83.98573,295.8
WBAN:03847,"CROSSVILLE MEMORIAL AIRPORT, TN US",-4.94554E+11,1.74649E+12,1.63754E+12,2.53402E+14,Tennessee,United States,35.95097,-85.08141,568.6
WBAN:03809,"DYERSBURG MUNICIPAL AIRPORT, TN US",-8.4335E+11,1.74649E+12,1.31604E+12,2.53402E+14,Tennessee,United States,36.0002,-89.4094,91.4
WBAN:13897,"NASHVILLE INTERNATIONAL AIRPORT, TN US",-6.9431E+11,1.74649E+12,1.63754E+12,2.53402E+14,Tennessee,United States,36.11054,-86.68815,178.9
WBAN:13877,"BRISTOL AIRPORT, TN US",-6.9431E+11,1.74649E+12,1.63754E+12,2.53402E+14,Tennessee,United States,36.47964,-82.39893,455.9
WBAN:14792,"TRENTON MERCER AIRPORT, NJ US",-7.84598E+11,1.74649E+12,8.89574E+11,2.53402E+14,New Jersey,United States,40.27681,-74.81587,57.9
WBAN:03894,"CLARKSVILLE OUTLAW AIRPORT, TN US",1.10454E+12,1.74649E+12,1.63754E+12,2.53402E+14,Tennessee,United States,36.61689,-87.41174,167.7
WBAN:54754,"NASHUA BOIRE FIELD, NH US",1.11283E+12,1.74649E+12,5.32138E+11,2.53402E+14,New Hampshire,United States,42.78333,-71.51667,61
WBAN:14710,"MANCHESTER AIRPORT, NH US",-6.62688E+11,1.74649E+12,8.79466E+11,2.53402E+14,New Hampshire,United States,42.92963,-71.43559,69.8
WBAN:04743,"PORTSMOUTH PEASE AFB, NH US",1.11439E+12,1.74649E+12,-4.10227E+11,2.53402E+14,New Hampshire,United States,43.08333,-70.81667,30.5
WBAN:14745,"CONCORD MUNICIPAL AIRPORT, NH US",-6.9431E+11,1.74649E+12,8.25638E+11,2.53402E+14,New Hampshire,United States,43.20488,-71.50257,103.1
WBAN:54791,"ROCHESTER SKYHAVEN AIRPORT, NH US",1.10454E+12,1.74649E+12,1.63754E+12,2.53402E+14,New Hampshire,United States,43.27938,-70.92427,100.2
WBAN:54736,"LACONIA, NH US",1.10454E+12,1.74649E+12,-1.57766E+11,2.53402E+14,New Hampshire,United States,43.56667,-71.43333,166.1
WBAN:14755,"MOUNT WASHINGTON, NH US",1.10454E+12,1.7464E+12,1.57412E+12,2.53402E+14,New Hampshire,United States,44.27018,-71.30336,1911.7
WBAN:94700,"BERLIN REGIONAL AIRPORT, NH US",1.10454E+12,1.74649E+12,1.63754E+12,2.53402E+14,New Hampshire,United States,44.57604,-71.1782,342.3
WBAN:13724,"ATLANTIC CITY MARINA, NJ US",-6.9431E+11,6.66576E+11,1.50699E+12,2.53402E+14,New Jersey,United States,39.37778,-74.42361,3
WBAN:14780,"LAKEHURST NAS, NJ US",-7.8624E+11,1.74649E+12,-3.47155E+11,2.53402E+14,New Jersey,United States,40.03333,-74.35,34.1
WBAN:13735,"MILLVILLE MUNICIPAL AIRPORT, NJ US",-6.62688E+11,1.74649E+12,9.1921E+11,2.53402E+14,New Jersey,United States,39.36623,-75.07778,17.8
WBAN:93730,"ATLANTIC CITY INTERNATIONAL AIRPORT, NJ US",-7.25846E+11,1.74649E+12,8.09914E+11,2.53402E+14,New Jersey,United States,39.45203,-74.56701,17.8
WBAN:14734,"NEWARK LIBERTY INTERNATIONAL AIRPORT, NJ US",-6.9431E+11,1.74649E+12,8.36179E+11,2.53402E+14,New Jersey,United States,40.68275,-74.16927,1.9
WBAN:54738,"MORRISTOWN, NJ US",1.10946E+12,1.74649E+12,-2.47363E+11,2.53402E+14,New Jersey,United States,40.8,-74.41667,57
WBAN:94741,"TETERBORO AIRPORT, NJ US",-7.25846E+11,1.74649E+12,1.63754E+12,2.53402E+14,New Jersey,United States,40.85898,-74.05616,0.8
WBAN:54743,"CALDWELL ESSEX CO AIRPORT, NJ US",1.10454E+12,1.74649E+12,1.63754E+12,2.53402E+14,New Jersey,United States,40.87645,-74.28284,52
WBAN:04720,"JAMESTOWN, NY US",1.10454E+12,1.74649E+12,-1.28347E+12,2.53402E+14,New York,United States,42.15,-79.25,525.2
WBAN:54760,"BELMAR FARMINGDALE ALLAIRE AIRPORT, NJ US",1.10454E+12,1.7458E+12,6.75734E+11,2.53402E+14,New Jersey,United States,40.186919,-74.124886,48.5
WBAN:23169,"MCCARRAN INTERNATIONAL AIRPORT, NV US",-6.63811E+11,1.74649E+12,1.63754E+12,2.53402E+14,Nevada,United States,36.0719,-115.16343,662.8
WBAN:23112,"LAS VEGAS NELLIS AFB, NV US",-8.77565E+11,1.74649E+12,-6.62688E+11,2.53402E+14,Nevada,United States,36.25,-115.03333,570
WBAN:23141,"INDIAN SPRINGS, NV US",-1.99757E+11,1.74649E+12,-1.60531E+11,2.53402E+14,Nevada,United States,36.58333,-115.68333,951.9
WBAN:03163,"CALIENTE, NV US",1.32728E+12,1.32728E+12,8.70912E+11,1.03784E+12,Nevada,United States,37.61222,-114.52639,1333.8
WBAN:23153,"TONOPAH AIRPORT, NV US",-8.60026E+11,1.74649E+12,1.63754E+12,2.53402E+14,Nevada,United States,38.05049,-117.09063,1645.7
WBAN:93102,"FALLON NAAS, NV US",-7.83821E+11,1.74649E+12,-2.20925E+11,2.53402E+14,Nevada,United States,39.41667,-118.71667,1199.1
WBAN:03170,"EUREKA AIRPORT, NV US",1.10454E+12,1.74649E+12,1.50699E+12,2.53402E+14,Nevada,United States,39.6013,-116.0055,1809.3
WBAN:23185,"RENO AIRPORT, NV US",-8.51731E+11,1.74649E+12,1.63754E+12,2.53402E+14,Nevada,United States,39.50769,-119.76829,1342.5
WBAN:24172,"LOVELOCK DERBY FIELD AIRPORT, NV US",-6.67958E+11,1.74649E+12,1.63754E+12,2.53402E+14,Nevada,United States,40.06843,-118.57018,1189.5
WBAN:24128,"WINNEMUCCA AIRPORT, NV US",-6.40483E+11,1.74649E+12,1.63754E+12,2.53402E+14,Nevada,United States,40.90178,-117.80812,1310.6
WBAN:94190,"WILD HORSE RESERVOIR, NV US",1.11974E+12,1.18325E+12,1.69698E+12,2.53402E+14,Nevada,United States,41.6381,-115.80543,1897.1
WBAN:03160,"DESERT ROCK AIRPORT, NV US",2.64038E+11,1.74649E+12,1.63529E+12,2.53402E+14,Nevada,United States,36.6206,-116.0278,984.5
WBAN:94789,"JFK INTERNATIONAL AIRPORT, NY US",-6.78586E+11,1.74649E+12,8.30909E+11,2.53402E+14,New York,United States,40.63915,-73.7639,2.7
WBAN:54787,"FARMINGDALE REPUBLIC AIRPORT, NY US",1.10454E+12,1.74649E+12,1.63754E+12,2.53402E+14,New York,United States,40.73443,-73.41637,22.8
WBAN:04781,"ISLIP LI MACARTHUR AIRPORT, NY US",94694400000,1.74649E+12,9.33466E+11,2.53402E+14,New York,United States,40.79389,-73.10181,25.4
WBAN:14732,"LAGUARDIA AIRPORT, NY US",-6.78586E+11,1.74649E+12,8.30909E+11,2.53402E+14,New York,United States,40.77945,-73.88027,3
WBAN:94728,"NY CITY CENTRAL PARK, NY US",-8.23219E+11,1.74649E+12,-2.83997E+11,2.53402E+14,New York,United States,40.77898,-73.96925,42.7
WBAN:14719,"WESTHAMPTON GABRESKI AIRPORT, NY US",-8.3497E+11,1.74649E+12,1.63754E+12,2.53402E+14,New York,United States,40.85055,-72.61928,13.1
WBAN:94745,"WESTCHESTER CO AIRPORT, NY US",-6.62688E+11,1.74649E+12,9.88675E+11,2.53402E+14,New York,United States,41.06236,-73.70454,112.9
WBAN:14714,"STEWART FIELD, NY US",-8.6521E+11,1.74649E+12,63072000000,2.53402E+14,New York,United States,41.5,-74.1,177.1
WBAN:04789,"MONTGOMERY ORANGE CO AIRPORT, NY US",1.10454E+12,1.74649E+12,1.63754E+12,2.53402E+14,New York,United States,41.50908,-74.26458,108.2
WBAN:54746,"MONTICELLO SULLIVAN, NY US",1.10454E+12,1.7096E+12,-15897600000,2.53402E+14,New York,United States,41.70139,-74.795,427.6
WBAN:14748,"ELMIRA CORNING REGIONAL AIRPORT, NY US",-6.6001E+11,1.74649E+12,1.63754E+12,2.53402E+14,New York,United States,42.15658,-76.90291,285.3
WBAN:04725,"BINGHAMTON GREATER AP, NY US",-6.9431E+11,1.74649E+12,8.15184E+11,2.53402E+14,New York,United States,42.20678,-75.97993,485.7
WBAN:23051,"CLAYTON MUNICIPAL AIR PARK, NM US",-6.78586E+11,1.74649E+12,1.63754E+12,2.53402E+14,New Mexico,United States,36.44834,-103.15366,1514.5
WBAN:94761,"ITHACA TOMPKINS CNTY, NY US",1.12311E+12,1.74649E+12,-8.23219E+11,2.53402E+14,New York,United States,42.48333,-76.46667,335
WBAN:14747,"DUNKIRK CHAUTAUQUA CO AIRPORT, NY US",-6.62688E+11,1.74649E+12,1.63754E+12,2.53402E+14,New York,United States,42.4932,-79.27623,203.9
WBAN:14735,"ALBANY INTERNATIONAL AIRPORT, NY US",-7.88918E+11,1.74649E+12,8.07235E+11,2.53402E+14,New York,United States,42.74722,-73.79913,85.4
WBAN:04741,"SCHENECTADY, NY US",-6.31152E+11,1.74649E+12,-6.86448E+11,2.53402E+14,New York,United States,42.85,-73.95,115.2
WBAN:14733,"BUFFALO NIAGARA INTERNATIONAL AIRPOR, NY US",-8.80934E+11,1.74649E+12,8.17776E+11,2.53402E+14,New York,United States,42.93998,-78.73606,216.2
WBAN:04724,"NIAGARA FALLS INTERNATIONAL AIRPORT, NY US",-5.85619E+11,1.74649E+12,1.63754E+12,2.53402E+14,New York,United States,43.1083,-78.93818,178.3
WBAN:94794,"UTICA ONEIDA CO AIRPORT, NY US",-6.02294E+11,1.16908E+12,9.80899E+11,1.20874E+12,New York,United States,43.145,-75.38389,216.7
WBAN:14750,"GLENS FALLS FLOYD BENNETT MEMORIAL AIRPORT, NY US",-6.6001E+11,1.74649E+12,9.95501E+11,2.53402E+14,New York,United States,43.33849,-73.61024,97.7
WBAN:94790,"WATERTOWN INTERNATIONAL AIRPORT, NY US",-6.5232E+11,1.74649E+12,9.80294E+11,2.53402E+14,New York,United States,43.98872,-76.02609,94.7
WBAN:14715,"WHEELER SACK FIELD ARMY AIR FIELD, NY US",1.1092E+12,1.74649E+12,-2.73629E+11,2.53402E+14,New York,United States,44.05,-75.73333,209.7
WBAN:94740,"SARANAC LAKE ADIRONDACK REGIONAL AIRPORT, NY US",1.10454E+12,1.74649E+12,1.63754E+12,2.53402E+14,New York,United States,44.39279,-74.20288,505.6
WBAN:94733,"PLATTSBURGH CLINTON CO AIRPORT, NY US",1.10454E+12,1.17996E+12,8.99251E+11,1.17979E+12,New York,United States,44.68722,-73.52306,113.4
WBAN:94725,"MASSENA INTERNATIONAL AIRPORT, NY US",-6.6001E+11,1.74649E+12,9.68803E+11,2.53402E+14,New York,United States,44.93341,-74.84836,60.9
WBAN:54757,"WELLSVILLE MUNICIPAL AIRPORT, NY US",1.10454E+12,1.74649E+12,1.63754E+12,2.53402E+14,New York,United States,42.10775,-77.98424,637.6
WBAN:93041,"LAS CRUCES MUNICIPAL AIRPORT, NM US",1.10454E+12,1.74649E+12,1.80576E+11,2.53402E+14,New Mexico,United States,32.28333,-106.91667,1357.6
WBAN:23078,"DEMING MUNICIPAL AIRPORT, NM US",1.10454E+12,1.74649E+12,1.63754E+12,2.53402E+14,New Mexico,United States,32.25923,-107.72056,1311.6
WBAN:93063,"SILVER CITY GRANT CO AIRPORT, NM US",-3.05078E+11,1.74649E+12,-42076800000,2.53402E+14,New Mexico,United States,32.63333,-108.16667,1637.7
WBAN:93034,"HOBBS FAA, NM US",-8.57347E+11,1.74649E+12,1.5393E+12,2.53402E+14,New Mexico,United States,32.6933,-103.2125,1114
WBAN:23002,"HOLLOMAN AFB, NM US",1.11404E+12,1.74649E+12,1.89302E+11,2.53402E+14,New Mexico,United States,32.85,-106.1,1267.4
WBAN:93097,"ALAMOGORDO WHITE SANDS REGIONAL AIRPORT, NM US",1.10454E+12,1.74649E+12,6.67786E+11,2.53402E+14,New Mexico,United States,32.83972,-105.99056,1280.2
WBAN:93045,"TRUTH OR CONSEQUENCES MUNICIPAL AIRPORT, NM US",-6.18624E+11,1.74649E+12,1.63754E+12,2.53402E+14,New Mexico,United States,33.23685,-107.26849,1470.2
WBAN:23009,"ROSWELL INDUSTRIAL AIR PARK, NM US",-8.66938E+11,1.74649E+12,1.63754E+12,2.53402E+14,New Mexico,United States,33.30735,-104.50817,1104.6
WBAN:93040,"SOCORRO MUNICIPAL AIRPORT, NM US",1.18126E+12,1.74649E+12,0,2.53402E+14,New Mexico,United States,34.06667,-106.9,1485.9
WBAN:23008,"CLOVIS CANNON AFB, NM US",-8.50003E+11,1.74649E+12,-1.89389E+11,2.53402E+14,New Mexico,United States,34.38333,-103.31667,1309.1
WBAN:23077,"CLOVIS MUNICIPAL AIRPORT, NM US",1.10454E+12,1.74649E+12,9.42538E+11,2.53402E+14,New Mexico,United States,34.43333,-103.08333,1285
WBAN:23050,"ALBUQUERQUE INTERNATIONAL AIRPORT, NM US",-8.9951E+11,1.74649E+12,1.63754E+12,2.53402E+14,New Mexico,United States,35.04189,-106.61545,1618.4
WBAN:23048,"TUCUMCARI MUNICIPAL AIRPORT, NM US",-7.39066E+11,1.74649E+12,1.63754E+12,2.53402E+14,New Mexico,United States,35.18052,-103.60144,1230.9
WBAN:23049,"SANTA FE CO MUNICIPAL AIRPORT, NM US",-7.39066E+11,1.74649E+12,1.63754E+12,2.53402E+14,New Mexico,United States,35.61096,-106.09574,1916.3
WBAN:23054,"LAS VEGAS MUNICIPAL AIRPORT, NM US",-7.39066E+11,1.74649E+12,1.63754E+12,2.53402E+14,New Mexico,United States,35.65582,-105.13853,2094
WBAN:03014,"TORREON NAVAJO MISSION, NM US",1.11758E+12,1.36184E+12,1.62337E+12,2.53402E+14,New Mexico,United States,35.7991,-107.1813,2042.2
WBAN:93091,"LOS ALAMOS MUNICIPAL AIRPORT, NM US",1.13607E+12,1.74649E+12,1.70813E+11,2.53402E+14,New Mexico,United States,35.88333,-106.28333,2185.7
WBAN:23052,"RATON MUNICIPAL CREWS FIELD AIRPORT, NM US",-6.78586E+11,1.74649E+12,1.63754E+12,2.53402E+14,New Mexico,United States,36.74177,-104.50764,1936.4
WBAN:23090,"FARMINGTON FOUR CORNERS REGIONAL AIRPORT, NM US",-6.62688E+11,1.74649E+12,1.63754E+12,2.53402E+14,New Mexico,United States,36.74354,-108.22931,1676.2
WBAN:93092,"CHAMA NWS AWRS, NM US",1.10454E+12,1.34896E+12,1.62864E+11,2.53402E+14,New Mexico,United States,36.9,-106.58333,2393
WBAN:04825,"APPLETON OUTAGAMIE CO AIRPORT, WI US",1.10454E+12,1.74649E+12,47520000000,2.53402E+14,Wisconsin,United States,44.26667,-88.51667,279.5
WBAN:03012,"TAOS MUNICIPAL AIRPORT, NM US",1.10454E+12,1.74649E+12,6.75734E+11,2.53402E+14,New Mexico,United States,36.45,-105.66667,2161.3
WBAN:94854,"JANESVILLE ROCK CO, WI US",1.11447E+12,1.74649E+12,-6.20784E+11,2.53402E+14,Wisconsin,United States,42.61667,-89.03333,246.3
WBAN:94818,"RACINE BATTEN AIRPORT, WI US",1.10454E+12,1.74649E+12,1.63754E+12,2.53402E+14,Wisconsin,United States,42.75856,-87.8178,203.6
WBAN:14839,"MILWAUKEE MITCHELL AIRPORT, WI US",-6.9431E+11,1.74649E+12,1.63754E+12,2.53402E+14,Wisconsin,United States,42.95489,-87.9045,203.3
WBAN:14837,"MADISON DANE CO REGIONAL AIRPORT, WI US",-6.9431E+11,1.74649E+12,1.63754E+12,2.53402E+14,Wisconsin,United States,43.14069,-89.34521,261.7
WBAN:54834,"WATERTOWN MUNICIPAL AIRPORT, WI US",1.11387E+12,1.74649E+12,8.28922E+11,2.53402E+14,Wisconsin,United States,43.16667,-88.71667,249.9
WBAN:14921,"LONE ROCK TRI CO AIRPORT, WI US",-6.65366E+11,1.74649E+12,1.63754E+12,2.53402E+14,Wisconsin,United States,43.21106,-90.18739,218
WBAN:04875,"WEST BEND MUNICIPAL AIRPORT, WI US",1.10454E+12,1.74649E+12,7.25846E+11,2.53402E+14,Wisconsin,United States,43.41667,-88.13333,269.4
WBAN:04841,"SHEBOYGAN CO MEMORIAL AIRPORT, WI US",1.10454E+12,1.74649E+12,1.63754E+12,2.53402E+14,Wisconsin,United States,43.7748,-87.84903,228.9
WBAN:04840,"FOND DU LAC CO AIRPORT, WI US",9.15149E+11,1.74649E+12,1.63754E+12,2.53402E+14,Wisconsin,United States,43.76951,-88.49076,242.5
WBAN:94930,"VOLK FIELD ANG, WI US",-2.6041E+11,1.74649E+12,-2.6041E+11,2.53402E+14,Wisconsin,United States,43.93333,-90.26667,278
WBAN:14920,"LA CROSSE REGIONAL AIRPORT, WI US",-6.9431E+11,1.74649E+12,1.63754E+12,2.53402E+14,Wisconsin,United States,43.87922,-91.25301,198.2
WBAN:94869,"MILWAUKEE TIMMERMAN AIRPORT, WI US",-63158400000,1.74649E+12,1.26058E+12,2.53402E+14,Wisconsin,United States,43.1086,-88.0306,223.7
WBAN:94940,"SPARTA FORT MCCOY, WI US",1.10454E+12,1.74649E+12,7.59024E+11,2.53402E+14,Wisconsin,United States,43.96667,-90.73333,252.7
WBAN:94855,"OSHKOSH WITTMAN REGIONAL AIRPORT, WI US",1.10454E+12,1.74649E+12,1.63754E+12,2.53402E+14,Wisconsin,United States,43.9871,-88.55642,239.3
WBAN:94897,"MANITOWOC, WI US",1.10454E+12,1.74649E+12,-5.10192E+11,2.53402E+14,Wisconsin,United States,44.13333,-87.66667,198.4
WBAN:14898,"GREEN BAY A S INTERNATIONAL AIRPORT, WI US",-6.41693E+11,1.74649E+12,1.63754E+12,2.53402E+14,Wisconsin,United States,44.47958,-88.1371,208.6
WBAN:04895,"STEVENS POINT MUNICIPAL AIRPORT, WI US",1.10454E+12,1.74649E+12,6.38755E+11,2.53402E+14,Wisconsin,United States,44.55,-89.53333,338.3
WBAN:94890,"MOSINEE, WI US",1.1092E+12,1.74649E+12,-7948800000,2.53402E+14,Wisconsin,United States,44.78333,-89.66667,389.2
WBAN:04824,"STURGEON BAY DOOR CO CHERRYLAND AIRPORT, WI US",1.10454E+12,1.74649E+12,4.96973E+11,2.53402E+14,Wisconsin,United States,44.85,-87.41667,220.7
WBAN:14991,"CHIPPEWA VALLEY REGIONAL AIRPORT, WI US",-6.39101E+11,1.74649E+12,1.63754E+12,2.53402E+14,Wisconsin,United States,44.86654,-91.48809,269.4
WBAN:14897,"WAUSAU ASOS, WI US",-6.35558E+11,1.7464E+12,1.63754E+12,2.53402E+14,Wisconsin,United States,44.927497,-89.625279,366
WBAN:04803,"RHINELANDER ONEIDA CO AIRPORT, WI US",1.10454E+12,1.7464E+12,1.63754E+12,2.53402E+14,Wisconsin,United States,45.63143,-89.4824,502.2
WBAN:14886,"KINGS LAND O LAKES AIRPORT, WI US",1.13607E+12,1.74649E+12,-8.9951E+11,2.53402E+14,Wisconsin,United States,46.15,-89.21667,519.4
WBAN:94929,"ASHLAND KENNEDY MEMORIAL AIRPORT, WI US",1.10454E+12,1.74649E+12,1.63754E+12,2.53402E+14,Wisconsin,United States,46.54676,-90.91845,250.2
WBAN:25503,"KING SALMON AIRPORT, AK US",-8.82835E+11,1.74649E+12,1.63754E+12,2.53402E+14,Alaska,United States,58.68294,-156.65634,20
WBAN:04826,"WISCONSIN RAPIDS ALEXANDER FIELD, WI US",1.10454E+12,1.74649E+12,1.63754E+12,2.53402E+14,Wisconsin,United States,44.35904,-89.83695,309.4
WBAN:03872,"BECKLEY RALEIGH CO AIRPORT, WV US",-2.09347E+11,1.74649E+12,8.23133E+11,2.53402E+14,West Virginia,United States,37.78359,-81.12283,760.2
WBAN:13866,"CHARLESTON WEST VIRGINIA INTERNATIONAL YEAGER AIRPORT, WV US",-6.6001E+11,1.74649E+12,7.8097E+11,2.53402E+14,West Virginia,United States,38.3795,-81.59112,278.1
WBAN:13729,"ELKINS RANDOLPH CO AIRPORT, WV US",-6.9431E+11,1.74649E+12,8.30909E+11,2.53402E+14,West Virginia,United States,38.8899,-79.85544,595.7
WBAN:03802,"CLARKSBURG BENEDUM AIRPORT, WV US",1.10454E+12,1.74649E+12,9.0288E+11,2.53402E+14,West Virginia,United States,39.30218,-80.22392,367.3
WBAN:03804,"PARKERSBURG MID OHIO VALLEY REGIONAL AIRPORT, WV US",94694400000,1.74649E+12,1.31017E+12,2.53402E+14,West Virginia,United States,39.33948,-81.44379,245.3
WBAN:13736,"MORGANTOWN MUNICIPAL AIRPORT, WV US",-6.6001E+11,1.74649E+12,9.15581E+11,2.53402E+14,West Virginia,United States,39.64981,-79.92064,373.6
WBAN:25704,"ADAK AIRPORT, AK US",-8.5752E+11,1.74649E+12,8.70394E+11,2.53402E+14,Alaska,United States,51.88333,-176.65,5.2
WBAN:25715,"ATKA AIRPORT, AK US",1.10454E+12,1.74649E+12,9.91872E+11,2.53402E+14,Alaska,United States,52.22028,-174.20611,17.1
WBAN:45715,"SHEMYA AFB, AK US",-3.2616E+11,1.74649E+12,3.78691E+11,2.53402E+14,Alaska,United States,52.71667,174.1,37.2
WBAN:25616,"DUTCH HARBOR, AK US",1.1092E+12,1.74649E+12,1.60272E+12,2.53402E+14,Alaska,United States,53.895,-166.5433,3
